{
    "crs": {
        "type": "name", 
        "properties": {
            "name": "urn:ogc:def:crs:OGC:1.3:CRS84"
        }
    }, 
    "type": "FeatureCollection", 
    "features": [
        {
            "geometry": {
                "type": "Point", 
                "coordinates": [
                    0.46023482929645443, 
                    46.32447205102177
                ]
            }, 
            "type": "Feature", 
            "properties": {
                "city": "Berlin", 
                "ogc_fid": 1, 
                "num": 20, 
                "type": "association"
            }
        }, 
        {
            "geometry": {
                "type": "Point", 
                "coordinates": [
                    18.441296397308747, 
                    63.74806339765257
                ]
            }, 
            "type": "Feature", 
            "properties": {
                "city": "Berlin", 
                "ogc_fid": 2, 
                "num": 10, 
                "type": "association"
            }
        }, 
        {
            "geometry": {
                "type": "Point", 
                "coordinates": [
                    26.12628587246822, 
                    41.08416172049268
                ]
            }, 
            "type": "Feature", 
            "properties": {
                "city": "Frankfurt", 
                "ogc_fid": 3, 
                "num": 11, 
                "type": "association"
            }
        }, 
        {
            "geometry": {
                "type": "Point", 
                "coordinates": [
                    22.34330895333915, 
                    54.50078137915693
                ]
            }, 
            "type": "Feature", 
            "properties": {
                "city": "Berlin", 
                "ogc_fid": 4, 
                "num": 19, 
                "type": "association"
            }
        }, 
        {
            "geometry": {
                "type": "Point", 
                "coordinates": [
                    5.448644368911532, 
                    42.969206342178744
                ]
            }, 
            "type": "Feature", 
            "properties": {
                "city": "London", 
                "ogc_fid": 5, 
                "num": 8, 
                "type": "association"
            }
        }, 
        {
            "geometry": {
                "type": "Point", 
                "coordinates": [
                    23.86679101920621, 
                    60.58439051885051
                ]
            }, 
            "type": "Feature", 
            "properties": {
                "city": "Paris", 
                "ogc_fid": 6, 
                "num": 11, 
                "type": "association"
            }
        }, 
        {
            "geometry": {
                "type": "Point", 
                "coordinates": [
                    13.333700913331828, 
                    37.00004231621954
                ]
            }, 
            "type": "Feature", 
            "properties": {
                "city": "Paris", 
                "ogc_fid": 7, 
                "num": 15, 
                "type": "association"
            }
        }, 
        {
            "geometry": {
                "type": "Point", 
                "coordinates": [
                    28.463596939410422, 
                    40.94793351178457
                ]
            }, 
            "type": "Feature", 
            "properties": {
                "city": "London", 
                "ogc_fid": 8, 
                "num": 1, 
                "type": "association"
            }
        }, 
        {
            "geometry": {
                "type": "Point", 
                "coordinates": [
                    9.435483943672962, 
                    49.52780102091532
                ]
            }, 
            "type": "Feature", 
            "properties": {
                "city": "Berlin", 
                "ogc_fid": 9, 
                "num": 3, 
                "type": "association"
            }
        }, 
        {
            "geometry": {
                "type": "Point", 
                "coordinates": [
                    5.574360922778698, 
                    40.15594672692074
                ]
            }, 
            "type": "Feature", 
            "properties": {
                "city": "Frankfurt", 
                "ogc_fid": 10, 
                "num": 4, 
                "type": "association"
            }
        }
    ]
}