{"type": "FeatureCollection", "crs": {"type": "name", "properties": {"name": "urn:ogc:def:crs:OGC:1.3:CRS84"}}, "features": [{"type": "Feature", "properties": {"city": "Paris", "mapid": "033-G-18561", "layername": "Academy", "num": 3, "type": "academy"}, "geometry": {"type": "Point", "coordinates": [2.3482, 48.8581]}}, {"type": "Feature", "properties": {"city": "Brussels", "mapid": "032-G-21783", "layername": "Academy", "num": 3, "type": "academy"}, "geometry": {"type": "Point", "coordinates": [4.3502, 50.8492]}}, {"type": "Feature", "properties": {"city": "Vienna", "mapid": "043-G-37384", "layername": "Academy", "num": 2, "type": "academy"}, "geometry": {"type": "Point", "coordinates": [16.3836, 48.2056]}}, {"type": "Feature", "properties": {"city": "Naples", "mapid": "039-G-12196", "layername": "Academy", "num": 2, "type": "academy"}, "geometry": {"type": "Point", "coordinates": [14.2496, 40.8528]}}, {"type": "Feature", "properties": {"city": "Turin", "mapid": "039-G-27165", "layername": "Academy", "num": 2, "type": "academy"}, "geometry": {"type": "Point", "coordinates": [7.6785, 45.0613]}}, {"type": "Feature", "properties": {"city": "Madrid", "mapid": "034-G-07699", "layername": "Academy", "num": 2, "type": "academy"}, "geometry": {"type": "Point", "coordinates": [-3.6916, 40.4193]}}, {"type": "Feature", "properties": {"city": "Erfurt", "mapid": "049-G-26195", "layername": "Academy", "num": 1, "type": "academy"}, "geometry": {"type": "Point", "coordinates": [11.0317, 50.9678]}}, {"type": "Feature", "properties": {"city": "Milan", "mapid": "039-G-29741", "layername": "Academy", "num": 1, "type": "academy"}, "geometry": {"type": "Point", "coordinates": [9.1696, 45.4752]}}, {"type": "Feature", "properties": {"city": "Trondheim", "mapid": "047-G-30817", "layername": "Academy", "num": 1, "type": "academy"}, "geometry": {"type": "Point", "coordinates": [10.3943, 63.4274]}}, {"type": "Feature", "properties": {"city": "Stockholm", "mapid": "046-G-34237", "layername": "Academy", "num": 1, "type": "academy"}, "geometry": {"type": "Point", "coordinates": [18.0687, 59.3171]}}, {"type": "Feature", "properties": {"city": "Venice", "mapid": "039-G-34688", "layername": "Academy", "num": 1, "type": "academy"}, "geometry": {"type": "Point", "coordinates": [12.3248, 45.4393]}}, {"type": "Feature", "properties": {"city": "Munich", "mapid": "049-G-35406", "layername": "Academy", "num": 1, "type": "academy"}, "geometry": {"type": "Point", "coordinates": [11.5703, 48.1383]}}, {"type": "Feature", "properties": {"city": "Prague", "mapid": "420-G-36826", "layername": "Academy", "num": 1, "type": "academy"}, "geometry": {"type": "Point", "coordinates": [14.4323, 50.0869]}}, {"type": "Feature", "properties": {"city": "Leipzig", "mapid": "049-G-38685", "layername": "Academy", "num": 1, "type": "academy"}, "geometry": {"type": "Point", "coordinates": [12.3762, 51.3477]}}, {"type": "Feature", "properties": {"city": "Berlin", "mapid": "049-G-39307", "layername": "Academy", "num": 1, "type": "academy"}, "geometry": {"type": "Point", "coordinates": [13.4154, 52.5223]}}, {"type": "Feature", "properties": {"city": "Copenhagen", "mapid": "045-G-39967", "layername": "Academy", "num": 1, "type": "academy"}, "geometry": {"type": "Point", "coordinates": [12.5935, 55.6872]}}, {"type": "Feature", "properties": {"city": "Buda-Pest", "mapid": "036-G-44485", "layername": "Academy", "num": 1, "type": "academy"}, "geometry": {"type": "Point", "coordinates": [19.0516, 47.491]}}, {"type": "Feature", "properties": {"city": "Saint Petersburg", "mapid": "007-G-52806", "layername": "Academy", "num": 1, "type": "academy"}, "geometry": {"type": "Point", "coordinates": [30.3337, 59.9456]}}, {"type": "Feature", "properties": {"city": "Lisbon", "mapid": "351-G-06667", "layername": "Academy", "num": 1, "type": "academy"}, "geometry": {"type": "Point", "coordinates": [-9.1487, 38.7483]}}, {"type": "Feature", "properties": {"city": "Sevilla", "mapid": "034-G-06960", "layername": "Academy", "num": 1, "type": "academy"}, "geometry": {"type": "Point", "coordinates": [-5.9848, 37.3878]}}, {"type": "Feature", "properties": {"city": "Lucca", "mapid": "039-G-10729", "layername": "Academy", "num": 1, "type": "academy"}, "geometry": {"type": "Point", "coordinates": [10.5157, 43.8433]}}, {"type": "Feature", "properties": {"city": "Barcelona", "mapid": "034-G-08928", "layername": "Academy", "num": 1, "type": "academy"}, "geometry": {"type": "Point", "coordinates": [2.175, 41.3962]}}, {"type": "Feature", "properties": {"city": "Florence", "mapid": "039-G-10895", "layername": "Academy", "num": 1, "type": "academy"}, "geometry": {"type": "Point", "coordinates": [11.248, 43.7717]}}, {"type": "Feature", "properties": {"city": "Dublin", "mapid": "353-G-01102", "layername": "Academy", "num": 1, "type": "academy"}, "geometry": {"type": "Point", "coordinates": [-6.276, 53.3461]}}, {"type": "Feature", "properties": {"city": "Palermo", "mapid": "039-G-11107", "layername": "Academy", "num": 1, "type": "academy"}, "geometry": {"type": "Point", "coordinates": [13.3619, 38.1151]}}, {"type": "Feature", "properties": {"city": "Amsterdam", "mapid": "031-G-21578", "layername": "Academy", "num": 1, "type": "academy"}, "geometry": {"type": "Point", "coordinates": [4.8977, 52.3788]}}, {"type": "Feature", "properties": {"city": "G\u00f6ttingen", "mapid": "049-G-25962", "layername": "Academy", "num": 1, "type": "academy"}, "geometry": {"type": "Point", "coordinates": [9.9335, 51.5387]}}]}