{"type": "FeatureCollection", "crs": {"type": "name", "properties": {"name": "urn:ogc:def:crs:OGC:1.3:CRS84"}}, "features": [{"type": "Feature", "properties": {"city": "Vienna", "mapid": "043-G-37384", "layername": "Academy", "num": 11, "type": "academy"}, "geometry": {"type": "Point", "coordinates": [16.3836, 48.2056]}}, {"type": "Feature", "properties": {"city": "Bucharest", "mapid": "040-G-15326", "layername": "Academy", "num": 8, "type": "academy"}, "geometry": {"type": "Point", "coordinates": [26.0995, 44.4235]}}, {"type": "Feature", "properties": {"city": "Paris", "mapid": "033-G-18561", "layername": "Academy", "num": 8, "type": "academy"}, "geometry": {"type": "Point", "coordinates": [2.3482, 48.8581]}}, {"type": "Feature", "properties": {"city": "Budapest", "mapid": "036-G-44485", "layername": "Academy", "num": 7, "type": "academy"}, "geometry": {"type": "Point", "coordinates": [19.0516, 47.491]}}, {"type": "Feature", "properties": {"city": "Rome", "mapid": "039-G-11402", "layername": "Academy", "num": 7, "type": "academy"}, "geometry": {"type": "Point", "coordinates": [12.4888, 41.9044]}}, {"type": "Feature", "properties": {"city": "Brussels", "mapid": "032-G-21783", "layername": "Academy", "num": 5, "type": "academy"}, "geometry": {"type": "Point", "coordinates": [4.3502, 50.8492]}}, {"type": "Feature", "properties": {"city": "Belgrade", "mapid": "381-G-13341", "layername": "Academy", "num": 5, "type": "academy"}, "geometry": {"type": "Point", "coordinates": [20.4672, 44.802]}}, {"type": "Feature", "properties": {"city": "Florence", "mapid": "039-G-10895", "layername": "Academy", "num": 4, "type": "academy"}, "geometry": {"type": "Point", "coordinates": [11.248, 43.7717]}}, {"type": "Feature", "properties": {"city": "Vilnius", "mapid": "370-G-49675", "layername": "Academy", "num": 4, "type": "academy"}, "geometry": {"type": "Point", "coordinates": [25.2822, 54.6888]}}, {"type": "Feature", "properties": {"city": "Athens", "mapid": "030-G-14172", "layername": "Academy", "num": 4, "type": "academy"}, "geometry": {"type": "Point", "coordinates": [23.7367, 37.9765]}}, {"type": "Feature", "properties": {"city": "Amsterdam", "mapid": "031-G-21578", "layername": "Academy", "num": 4, "type": "academy"}, "geometry": {"type": "Point", "coordinates": [4.8977, 52.3788]}}, {"type": "Feature", "properties": {"city": "Luxembourg", "mapid": "352-G-27521", "layername": "Academy", "num": 3, "type": "academy"}, "geometry": {"type": "Point", "coordinates": [6.1259, 49.6107]}}, {"type": "Feature", "properties": {"city": "Dublin", "mapid": "353-G-01102", "layername": "Academy", "num": 3, "type": "academy"}, "geometry": {"type": "Point", "coordinates": [-6.276, 53.3461]}}, {"type": "Feature", "properties": {"city": "Warsaw", "mapid": "048-G-43516", "layername": "Academy", "num": 3, "type": "academy"}, "geometry": {"type": "Point", "coordinates": [21.0155, 52.246]}}, {"type": "Feature", "properties": {"city": "Krak\u00f3w", "mapid": "048-G-46041", "layername": "Academy", "num": 3, "type": "academy"}, "geometry": {"type": "Point", "coordinates": [19.9436, 50.0602]}}, {"type": "Feature", "properties": {"city": "Milan", "mapid": "039-G-29741", "layername": "Academy", "num": 3, "type": "academy"}, "geometry": {"type": "Point", "coordinates": [9.1696, 45.4752]}}, {"type": "Feature", "properties": {"city": "Oslo", "mapid": "047-G-31801", "layername": "Academy", "num": 3, "type": "academy"}, "geometry": {"type": "Point", "coordinates": [10.7507, 59.9113]}}, {"type": "Feature", "properties": {"city": "Munich", "mapid": "049-G-35406", "layername": "Academy", "num": 3, "type": "academy"}, "geometry": {"type": "Point", "coordinates": [11.5703, 48.1383]}}, {"type": "Feature", "properties": {"city": "Groningen", "mapid": "031-G-23311", "layername": "Academy", "num": 3, "type": "academy"}, "geometry": {"type": "Point", "coordinates": [6.5596, 53.2217]}}, {"type": "Feature", "properties": {"city": "Naples", "mapid": "039-G-12196", "layername": "Academy", "num": 3, "type": "academy"}, "geometry": {"type": "Point", "coordinates": [14.2496, 40.8528]}}, {"type": "Feature", "properties": {"city": "Nicosia", "mapid": "357-G-16157", "layername": "Academy", "num": 3, "type": "academy"}, "geometry": {"type": "Point", "coordinates": [33.3563, 35.1697]}}, {"type": "Feature", "properties": {"city": "Barcelona", "mapid": "034-G-08928", "layername": "Academy", "num": 3, "type": "academy"}, "geometry": {"type": "Point", "coordinates": [2.175, 41.3962]}}, {"type": "Feature", "properties": {"city": "Skopje", "mapid": "389-G-13750", "layername": "Academy", "num": 2, "type": "academy"}, "geometry": {"type": "Point", "coordinates": [21.4418, 42.0053]}}, {"type": "Feature", "properties": {"city": "Venice", "mapid": "039-G-34688", "layername": "Academy", "num": 2, "type": "academy"}, "geometry": {"type": "Point", "coordinates": [12.3248, 45.4393]}}, {"type": "Feature", "properties": {"city": "Cluj-Napoca", "mapid": "040-G-47802", "layername": "Academy", "num": 2, "type": "academy"}, "geometry": {"type": "Point", "coordinates": [23.5924, 46.7669]}}, {"type": "Feature", "properties": {"city": "Genoa", "mapid": "039-G-10578", "layername": "Academy", "num": 2, "type": "academy"}, "geometry": {"type": "Point", "coordinates": [8.948, 44.4069]}}, {"type": "Feature", "properties": {"city": "Novi Sad", "mapid": "381-G-46612", "layername": "Academy", "num": 2, "type": "academy"}, "geometry": {"type": "Point", "coordinates": [19.8392, 45.2646]}}, {"type": "Feature", "properties": {"city": "Podgorica", "mapid": "381-G-13132", "layername": "Academy", "num": 2, "type": "academy"}, "geometry": {"type": "Point", "coordinates": [19.2661, 42.4394]}}, {"type": "Feature", "properties": {"city": "Mainz", "mapid": "049-G-28126", "layername": "Academy", "num": 2, "type": "academy"}, "geometry": {"type": "Point", "coordinates": [8.2608, 49.9996]}}, {"type": "Feature", "properties": {"city": "Nijmegen", "mapid": "031-G-22741", "layername": "Academy", "num": 2, "type": "academy"}, "geometry": {"type": "Point", "coordinates": [5.86, 51.842]}}, {"type": "Feature", "properties": {"city": "Ljubljana", "mapid": "386-G-37529", "layername": "Academy", "num": 2, "type": "academy"}, "geometry": {"type": "Point", "coordinates": [14.5052, 46.0535]}}, {"type": "Feature", "properties": {"city": "Graz", "mapid": "043-G-37954", "layername": "Academy", "num": 2, "type": "academy"}, "geometry": {"type": "Point", "coordinates": [15.4226, 47.0629]}}, {"type": "Feature", "properties": {"city": "Zagreb", "mapid": "385-G-38250", "layername": "Academy", "num": 2, "type": "academy"}, "geometry": {"type": "Point", "coordinates": [15.9724, 45.8135]}}, {"type": "Feature", "properties": {"city": "Vatican City", "mapid": "392-G-11390", "layername": "Academy", "num": 2, "type": "academy"}, "geometry": {"type": "Point", "coordinates": [12.4547, 41.9044]}}, {"type": "Feature", "properties": {"city": "Sarajevo", "mapid": "387-G-12779", "layername": "Academy", "num": 2, "type": "academy"}, "geometry": {"type": "Point", "coordinates": [18.4165, 43.8596]}}, {"type": "Feature", "properties": {"city": "Berlin", "mapid": "049-G-39307", "layername": "Academy", "num": 2, "type": "academy"}, "geometry": {"type": "Point", "coordinates": [13.4154, 52.5223]}}, {"type": "Feature", "properties": {"city": "G\u00f6ttingen", "mapid": "049-G-25962", "layername": "Academy", "num": 2, "type": "academy"}, "geometry": {"type": "Point", "coordinates": [9.9335, 51.5387]}}, {"type": "Feature", "properties": {"city": "Bonn", "mapid": "049-G-23718", "layername": "Academy", "num": 2, "type": "academy"}, "geometry": {"type": "Point", "coordinates": [7.0858, 50.7367]}}, {"type": "Feature", "properties": {"city": "Gda\u0144sk", "mapid": "048-G-42530", "layername": "Academy", "num": 2, "type": "academy"}, "geometry": {"type": "Point", "coordinates": [18.6465, 54.3543]}}, {"type": "Feature", "properties": {"city": "Turin", "mapid": "039-G-27165", "layername": "Academy", "num": 2, "type": "academy"}, "geometry": {"type": "Point", "coordinates": [7.6785, 45.0613]}}, {"type": "Feature", "properties": {"city": "Lisbon", "mapid": "351-G-06667", "layername": "Academy", "num": 2, "type": "academy"}, "geometry": {"type": "Point", "coordinates": [-9.1487, 38.7483]}}, {"type": "Feature", "properties": {"city": "Sevilla", "mapid": "034-G-06960", "layername": "Academy", "num": 2, "type": "academy"}, "geometry": {"type": "Point", "coordinates": [-5.9848, 37.3878]}}, {"type": "Feature", "properties": {"city": "Pozna\u0144", "mapid": "048-G-41610", "layername": "Academy", "num": 2, "type": "academy"}, "geometry": {"type": "Point", "coordinates": [16.91, 52.4026]}}, {"type": "Feature", "properties": {"city": "Madrid", "mapid": "034-G-07699", "layername": "Academy", "num": 2, "type": "academy"}, "geometry": {"type": "Point", "coordinates": [-3.6916, 40.4193]}}, {"type": "Feature", "properties": {"city": "Cagliari", "mapid": "039-G-11061", "layername": "Academy", "num": 2, "type": "academy"}, "geometry": {"type": "Point", "coordinates": [9.1117, 39.2146]}}, {"type": "Feature", "properties": {"city": "Lviv", "mapid": "380-G-48268", "layername": "Academy", "num": 2, "type": "academy"}, "geometry": {"type": "Point", "coordinates": [24.0273, 49.8454]}}, {"type": "Feature", "properties": {"city": "Pri\u0161tina", "mapid": "381-G-13500", "layername": "Academy", "num": 2, "type": "academy"}, "geometry": {"type": "Point", "coordinates": [21.1679, 42.6706]}}, {"type": "Feature", "properties": {"city": "Simferopol", "mapid": "380-G-16494", "layername": "Academy", "num": 2, "type": "academy"}, "geometry": {"type": "Point", "coordinates": [34.1115, 44.959]}}, {"type": "Feature", "properties": {"city": "The Hague", "mapid": "031-G-21423", "layername": "Academy", "num": 2, "type": "academy"}, "geometry": {"type": "Point", "coordinates": [4.3091, 52.0811]}}, {"type": "Feature", "properties": {"city": "Kiev", "mapid": "380-G-50468", "layername": "Academy", "num": 2, "type": "academy"}, "geometry": {"type": "Point", "coordinates": [30.5235, 50.4418]}}, {"type": "Feature", "properties": {"city": "Leipzig", "mapid": "049-G-38685", "layername": "Academy", "num": 1, "type": "academy"}, "geometry": {"type": "Point", "coordinates": [12.3762, 51.3477]}}, {"type": "Feature", "properties": {"city": "Potsdam", "mapid": "049-G-39150", "layername": "Academy", "num": 1, "type": "academy"}, "geometry": {"type": "Point", "coordinates": [13.0481, 52.3989]}}, {"type": "Feature", "properties": {"city": "Copenhagen", "mapid": "045-G-39967", "layername": "Academy", "num": 1, "type": "academy"}, "geometry": {"type": "Point", "coordinates": [12.5935, 55.6872]}}, {"type": "Feature", "properties": {"city": "Reykjav\u00edk", "mapid": "354-G-00004", "layername": "Academy", "num": 1, "type": "academy"}, "geometry": {"type": "Point", "coordinates": [-21.9614, 64.1467]}}, {"type": "Feature", "properties": {"city": "Szczecin", "mapid": "048-G-40891", "layername": "Academy", "num": 1, "type": "academy"}, "geometry": {"type": "Point", "coordinates": [14.546, 53.4242]}}, {"type": "Feature", "properties": {"city": "Wroc\u0142aw", "mapid": "048-G-41404", "layername": "Academy", "num": 1, "type": "academy"}, "geometry": {"type": "Point", "coordinates": [17.0214, 51.1112]}}, {"type": "Feature", "properties": {"city": "Toru\u0144", "mapid": "048-G-41856", "layername": "Academy", "num": 1, "type": "academy"}, "geometry": {"type": "Point", "coordinates": [18.6122, 53.0203]}}, {"type": "Feature", "properties": {"city": "\u0141\u00f3d\u017a", "mapid": "048-G-42157", "layername": "Academy", "num": 1, "type": "academy"}, "geometry": {"type": "Point", "coordinates": [19.4445, 51.7954]}}, {"type": "Feature", "properties": {"city": "Olsztyn", "mapid": "048-G-42711", "layername": "Academy", "num": 1, "type": "academy"}, "geometry": {"type": "Point", "coordinates": [20.476000044414, 53.7731000242217]}}, {"type": "Feature", "properties": {"city": "Kielce", "mapid": "048-G-43191", "layername": "Academy", "num": 1, "type": "academy"}, "geometry": {"type": "Point", "coordinates": [20.6297, 50.8726]}}, {"type": "Feature", "properties": {"city": null, "mapid": "048-G-43797", "layername": "Academy", "num": 1, "type": "academy"}, "geometry": {"type": "Point", "coordinates": [21.1468000450388, 51.4028000220142]}}, {"type": "Feature", "properties": {"city": "Slavonski Brod", "mapid": "385-G-44167", "layername": "Academy", "num": 1, "type": "academy"}, "geometry": {"type": "Point", "coordinates": [18.0195, 45.1669]}}, {"type": "Feature", "properties": {"city": "Bratislava", "mapid": "421-G-44735", "layername": "Academy", "num": 1, "type": "academy"}, "geometry": {"type": "Point", "coordinates": [17.1073, 48.1447]}}, {"type": "Feature", "properties": {"city": "Opava", "mapid": "420-G-45083", "layername": "Academy", "num": 1, "type": "academy"}, "geometry": {"type": "Point", "coordinates": [17.9018, 49.9346]}}, {"type": "Feature", "properties": {"city": "Katowice", "mapid": "048-G-45359", "layername": "Academy", "num": 1, "type": "academy"}, "geometry": {"type": "Point", "coordinates": [19.0276, 50.2625]}}, {"type": "Feature", "properties": {"city": "Rzesz\u00f3w", "mapid": "048-G-46319", "layername": "Academy", "num": 1, "type": "academy"}, "geometry": {"type": "Point", "coordinates": [22.0025, 50.0404]}}, {"type": "Feature", "properties": {"city": "Galway", "mapid": "353-G-00466", "layername": "Academy", "num": 1, "type": "academy"}, "geometry": {"type": "Point", "coordinates": [-9.051, 53.2733]}}, {"type": "Feature", "properties": {"city": "T\u00e2rgu Mure\u015f", "mapid": "040-G-47835", "layername": "Academy", "num": 1, "type": "academy"}, "geometry": {"type": "Point", "coordinates": [24.5597, 46.5371]}}, {"type": "Feature", "properties": {"city": "Sibiu", "mapid": "040-G-47969", "layername": "Academy", "num": 1, "type": "academy"}, "geometry": {"type": "Point", "coordinates": [24.141, 45.7911]}}, {"type": "Feature", "properties": {"city": "Ia\u015fi", "mapid": "040-G-48835", "layername": "Academy", "num": 1, "type": "academy"}, "geometry": {"type": "Point", "coordinates": [27.5943, 47.1602]}}, {"type": "Feature", "properties": {"city": "Lublin", "mapid": "048-G-48991", "layername": "Academy", "num": 1, "type": "academy"}, "geometry": {"type": "Point", "coordinates": [22.5563, 51.2532]}}, {"type": "Feature", "properties": {"city": "Bia\u0142ystok", "mapid": "048-G-49143", "layername": "Academy", "num": 1, "type": "academy"}, "geometry": {"type": "Point", "coordinates": [23.1664, 53.1423]}}, {"type": "Feature", "properties": {"city": "Minsk", "mapid": "375-G-49915", "layername": "Academy", "num": 1, "type": "academy"}, "geometry": {"type": "Point", "coordinates": [27.5553, 53.898]}}, {"type": "Feature", "properties": {"city": "Chi\u015fin\u0103u", "mapid": "373-G-50306", "layername": "Academy", "num": 1, "type": "academy"}, "geometry": {"type": "Point", "coordinates": [28.848, 47.0141]}}, {"type": "Feature", "properties": {"city": "Riga", "mapid": "371-G-50841", "layername": "Academy", "num": 1, "type": "academy"}, "geometry": {"type": "Point", "coordinates": [24.1165, 56.9463]}}, {"type": "Feature", "properties": {"city": "Helsinki", "mapid": "358-G-51111", "layername": "Academy", "num": 1, "type": "academy"}, "geometry": {"type": "Point", "coordinates": [24.9472, 60.2087]}}, {"type": "Feature", "properties": {"city": "Tallinn", "mapid": "372-G-51146", "layername": "Academy", "num": 1, "type": "academy"}, "geometry": {"type": "Point", "coordinates": [24.7427, 59.4268]}}, {"type": "Feature", "properties": {"city": "Cork", "mapid": "353-G-00516", "layername": "Academy", "num": 1, "type": "academy"}, "geometry": {"type": "Point", "coordinates": [-8.4733, 51.898]}}, {"type": "Feature", "properties": {"city": "London", "mapid": "044-G-05204", "layername": "Academy", "num": 1, "type": "academy"}, "geometry": {"type": "Point", "coordinates": [-0.0865, 51.5106]}}, {"type": "Feature", "properties": {"city": "Saint Petersburg", "mapid": "007-G-52806", "layername": "Academy", "num": 1, "type": "academy"}, "geometry": {"type": "Point", "coordinates": [30.3337, 59.9456]}}, {"type": "Feature", "properties": {"city": "Petrozavodsk", "mapid": "007-G-53336", "layername": "Academy", "num": 1, "type": "academy"}, "geometry": {"type": "Point", "coordinates": [34.3602, 61.7828]}}, {"type": "Feature", "properties": {"city": "Moscow", "mapid": "007-G-54635", "layername": "Academy", "num": 1, "type": "academy"}, "geometry": {"type": "Point", "coordinates": [37.6268, 55.7515]}}, {"type": "Feature", "properties": {"city": "Saratov", "mapid": "007-G-55385", "layername": "Academy", "num": 1, "type": "academy"}, "geometry": {"type": "Point", "coordinates": [45.9836, 51.5266]}}, {"type": "Feature", "properties": {"city": "Kazan", "mapid": "007-G-55478", "layername": "Academy", "num": 1, "type": "academy"}, "geometry": {"type": "Point", "coordinates": [49.1269, 55.7966]}}, {"type": "Feature", "properties": {"city": "Samara", "mapid": "007-G-55512", "layername": "Academy", "num": 1, "type": "academy"}, "geometry": {"type": "Point", "coordinates": [50.2238, 53.2506]}}, {"type": "Feature", "properties": {"city": "Ufa", "mapid": "007-G-55592", "layername": "Academy", "num": 1, "type": "academy"}, "geometry": {"type": "Point", "coordinates": [56.0399, 54.7964]}}, {"type": "Feature", "properties": {"city": "Izhevsk", "mapid": "007-G-55834", "layername": "Academy", "num": 1, "type": "academy"}, "geometry": {"type": "Point", "coordinates": [53.2156, 56.8447]}}, {"type": "Feature", "properties": {"city": "Syktyvkar", "mapid": "007-G-55850", "layername": "Academy", "num": 1, "type": "academy"}, "geometry": {"type": "Point", "coordinates": [50.8124, 61.6704]}}, {"type": "Feature", "properties": {"city": "Makhachkala", "mapid": "007-G-56112", "layername": "Academy", "num": 1, "type": "academy"}, "geometry": {"type": "Point", "coordinates": [47.4875, 42.9674]}}, {"type": "Feature", "properties": {"city": "Yekaterinburg", "mapid": "007-T-90166", "layername": "Academy", "num": 1, "type": "academy"}, "geometry": {"type": "Point", "coordinates": [60.6100000000001, 56.8466666666667]}}, {"type": "Feature", "properties": {"city": "Valbonne", "mapid": "033-T-90204", "layername": "Academy", "num": 1, "type": "academy"}, "geometry": {"type": "Point", "coordinates": [7.00861111111111, 43.6408333333333]}}, {"type": "Feature", "properties": {"city": "Caen", "mapid": "033-G-05954", "layername": "Academy", "num": 1, "type": "academy"}, "geometry": {"type": "Point", "coordinates": [-0.3585, 49.1848]}}, {"type": "Feature", "properties": {"city": "Santiago de Compostela", "mapid": "034-G-07182", "layername": "Academy", "num": 1, "type": "academy"}, "geometry": {"type": "Point", "coordinates": [-8.5439, 42.8769]}}, {"type": "Feature", "properties": {"city": "Bordeaux", "mapid": "033-G-08122", "layername": "Academy", "num": 1, "type": "academy"}, "geometry": {"type": "Point", "coordinates": [-0.5731, 44.8312]}}, {"type": "Feature", "properties": {"city": "Toulouse", "mapid": "033-G-09239", "layername": "Academy", "num": 1, "type": "academy"}, "geometry": {"type": "Point", "coordinates": [1.4484, 43.606]}}, {"type": "Feature", "properties": {"city": "Montpellier", "mapid": "033-G-09641", "layername": "Academy", "num": 1, "type": "academy"}, "geometry": {"type": "Point", "coordinates": [3.872, 43.6108]}}, {"type": "Feature", "properties": {"city": "Avignon", "mapid": "033-G-09835", "layername": "Academy", "num": 1, "type": "academy"}, "geometry": {"type": "Point", "coordinates": [4.818, 43.9517]}}, {"type": "Feature", "properties": {"city": "Marseille", "mapid": "033-G-10005", "layername": "Academy", "num": 1, "type": "academy"}, "geometry": {"type": "Point", "coordinates": [5.3733, 43.2959]}}, {"type": "Feature", "properties": {"city": "Aix-en-Provence", "mapid": "033-G-09979", "layername": "Academy", "num": 1, "type": "academy"}, "geometry": {"type": "Point", "coordinates": [5.4439, 43.5254]}}, {"type": "Feature", "properties": {"city": "Pisa", "mapid": "039-G-10723", "layername": "Academy", "num": 1, "type": "academy"}, "geometry": {"type": "Point", "coordinates": [10.3838, 43.7147]}}, {"type": "Feature", "properties": {"city": "Parma", "mapid": "039-G-10758", "layername": "Academy", "num": 1, "type": "academy"}, "geometry": {"type": "Point", "coordinates": [10.3257, 44.8013]}}, {"type": "Feature", "properties": {"city": "Modena", "mapid": "039-G-10809", "layername": "Academy", "num": 1, "type": "academy"}, "geometry": {"type": "Point", "coordinates": [10.9259, 44.6476]}}, {"type": "Feature", "properties": {"city": "Portoferraio", "mapid": "039-G-10906", "layername": "Academy", "num": 1, "type": "academy"}, "geometry": {"type": "Point", "coordinates": [10.3284, 42.8153]}}, {"type": "Feature", "properties": {"city": "Reggio di Calabria", "mapid": "039-G-11325", "layername": "Academy", "num": 1, "type": "academy"}, "geometry": {"type": "Point", "coordinates": [15.6376, 38.0999]}}, {"type": "Feature", "properties": {"city": "Perugia", "mapid": "039-G-11520", "layername": "Academy", "num": 1, "type": "academy"}, "geometry": {"type": "Point", "coordinates": [12.3895, 43.1078]}}, {"type": "Feature", "properties": {"city": "Bologna", "mapid": "039-G-11618", "layername": "Academy", "num": 1, "type": "academy"}, "geometry": {"type": "Point", "coordinates": [11.3295, 44.4959]}}, {"type": "Feature", "properties": {"city": "Ancona", "mapid": "039-G-11740", "layername": "Academy", "num": 1, "type": "academy"}, "geometry": {"type": "Point", "coordinates": [13.5176, 43.6196]}}, {"type": "Feature", "properties": {"city": "L^'Aquila", "mapid": "039-G-11822", "layername": "Academy", "num": 1, "type": "academy"}, "geometry": {"type": "Point", "coordinates": [13.4025, 42.3489]}}, {"type": "Feature", "properties": {"city": "Zadar", "mapid": "385-G-11925", "layername": "Academy", "num": 1, "type": "academy"}, "geometry": {"type": "Point", "coordinates": [15.2383, 44.1095]}}, {"type": "Feature", "properties": {"city": "Potenza", "mapid": "039-G-12344", "layername": "Academy", "num": 1, "type": "academy"}, "geometry": {"type": "Point", "coordinates": [15.8, 40.6384]}}, {"type": "Feature", "properties": {"city": "Dubrovnik", "mapid": "385-G-12594", "layername": "Academy", "num": 1, "type": "academy"}, "geometry": {"type": "Point", "coordinates": [18.0937, 42.6537]}}, {"type": "Feature", "properties": {"city": "Banja Luka", "mapid": "387-G-12661", "layername": "Academy", "num": 1, "type": "academy"}, "geometry": {"type": "Point", "coordinates": [17.2032, 44.7743]}}, {"type": "Feature", "properties": {"city": "Tirana", "mapid": "355-G-13651", "layername": "Academy", "num": 1, "type": "academy"}, "geometry": {"type": "Point", "coordinates": [19.8211, 41.3283]}}, {"type": "Feature", "properties": {"city": "Prilep", "mapid": "389-G-13740", "layername": "Academy", "num": 1, "type": "academy"}, "geometry": {"type": "Point", "coordinates": [21.5537, 41.349]}}, {"type": "Feature", "properties": {"city": "Sofia", "mapid": "359-G-14735", "layername": "Academy", "num": 1, "type": "academy"}, "geometry": {"type": "Point", "coordinates": [23.3202, 42.6946]}}, {"type": "Feature", "properties": {"city": "Ankara", "mapid": "090-G-15907", "layername": "Academy", "num": 1, "type": "academy"}, "geometry": {"type": "Point", "coordinates": [32.8511, 39.938]}}, {"type": "Feature", "properties": {"city": "Maykop", "mapid": "007-G-16780", "layername": "Academy", "num": 1, "type": "academy"}, "geometry": {"type": "Point", "coordinates": [40.1061, 44.6102]}}, {"type": "Feature", "properties": {"city": "Tours", "mapid": "033-G-17585", "layername": "Academy", "num": 1, "type": "academy"}, "geometry": {"type": "Point", "coordinates": [0.6887, 47.39]}}, {"type": "Feature", "properties": {"city": "Orl\u00e9ans", "mapid": "033-G-18443", "layername": "Academy", "num": 1, "type": "academy"}, "geometry": {"type": "Point", "coordinates": [1.9181, 47.9031]}}, {"type": "Feature", "properties": {"city": "Villeneuve-d^'Ascq", "mapid": "033-G-18999", "layername": "Academy", "num": 1, "type": "academy"}, "geometry": {"type": "Point", "coordinates": [3.1502, 50.6164]}}, {"type": "Feature", "properties": {"city": "Dijon", "mapid": "033-G-20096", "layername": "Academy", "num": 1, "type": "academy"}, "geometry": {"type": "Point", "coordinates": [5.0434, 47.3283]}}, {"type": "Feature", "properties": {"city": "Lyon", "mapid": "033-G-20274", "layername": "Academy", "num": 1, "type": "academy"}, "geometry": {"type": "Point", "coordinates": [4.8461, 45.7541]}}, {"type": "Feature", "properties": {"city": "Lille", "mapid": "033-G-21025", "layername": "Academy", "num": 1, "type": "academy"}, "geometry": {"type": "Point", "coordinates": [3.0399, 50.635]}}, {"type": "Feature", "properties": {"city": "Middelburg", "mapid": "031-G-21204", "layername": "Academy", "num": 1, "type": "academy"}, "geometry": {"type": "Point", "coordinates": [3.6036, 51.493]}}, {"type": "Feature", "properties": {"city": "Ghent", "mapid": "032-G-21310", "layername": "Academy", "num": 1, "type": "academy"}, "geometry": {"type": "Point", "coordinates": [3.7244, 51.053]}}, {"type": "Feature", "properties": {"city": "Wassenaar", "mapid": "031-G-21458", "layername": "Academy", "num": 1, "type": "academy"}, "geometry": {"type": "Point", "coordinates": [4.3984, 52.145]}}, {"type": "Feature", "properties": {"city": "Maastricht", "mapid": "031-G-22451", "layername": "Academy", "num": 1, "type": "academy"}, "geometry": {"type": "Point", "coordinates": [5.7111, 50.859]}}, {"type": "Feature", "properties": {"city": "D\u00fcsseldorf", "mapid": "049-G-23000", "layername": "Academy", "num": 1, "type": "academy"}, "geometry": {"type": "Point", "coordinates": [6.7879, 51.2304]}}, {"type": "Feature", "properties": {"city": "Leeuwarden", "mapid": "031-G-23249", "layername": "Academy", "num": 1, "type": "academy"}, "geometry": {"type": "Point", "coordinates": [5.7932, 53.1966]}}, {"type": "Feature", "properties": {"city": "M\u00fcnster", "mapid": "049-G-23959", "layername": "Academy", "num": 1, "type": "academy"}, "geometry": {"type": "Point", "coordinates": [7.6293, 51.9641]}}, {"type": "Feature", "properties": {"city": "Kiel", "mapid": "049-G-24846", "layername": "Academy", "num": 1, "type": "academy"}, "geometry": {"type": "Point", "coordinates": [10.1245, 54.3175]}}, {"type": "Feature", "properties": {"city": "Kassel", "mapid": "049-G-25206", "layername": "Academy", "num": 1, "type": "academy"}, "geometry": {"type": "Point", "coordinates": [9.509, 51.3186]}}, {"type": "Feature", "properties": {"city": "Erfurt", "mapid": "049-G-26195", "layername": "Academy", "num": 1, "type": "academy"}, "geometry": {"type": "Point", "coordinates": [11.0317, 50.9678]}}, {"type": "Feature", "properties": {"city": "Grenoble", "mapid": "033-G-26234", "layername": "Academy", "num": 1, "type": "academy"}, "geometry": {"type": "Point", "coordinates": [5.7259, 45.1878]}}, {"type": "Feature", "properties": {"city": "Besan\u00e7on", "mapid": "033-G-26567", "layername": "Academy", "num": 1, "type": "academy"}, "geometry": {"type": "Point", "coordinates": [6.0239, 47.2452]}}, {"type": "Feature", "properties": {"city": "Bern", "mapid": "041-G-26824", "layername": "Academy", "num": 1, "type": "academy"}, "geometry": {"type": "Point", "coordinates": [7.4295, 46.9479]}}, {"type": "Feature", "properties": {"city": "Nancy", "mapid": "033-G-27377", "layername": "Academy", "num": 1, "type": "academy"}, "geometry": {"type": "Point", "coordinates": [6.1811, 48.6926]}}, {"type": "Feature", "properties": {"city": "Strasbourg", "mapid": "033-G-28277", "layername": "Academy", "num": 1, "type": "academy"}, "geometry": {"type": "Point", "coordinates": [7.7308, 48.5791]}}, {"type": "Feature", "properties": {"city": "Stuttgart", "mapid": "049-G-28575", "layername": "Academy", "num": 1, "type": "academy"}, "geometry": {"type": "Point", "coordinates": [9.1825, 48.7758]}}, {"type": "Feature", "properties": {"city": "Heidelberg", "mapid": "049-G-28721", "layername": "Academy", "num": 1, "type": "academy"}, "geometry": {"type": "Point", "coordinates": [8.6844, 49.4057]}}, {"type": "Feature", "properties": {"city": "Brescia", "mapid": "039-G-30360", "layername": "Academy", "num": 1, "type": "academy"}, "geometry": {"type": "Point", "coordinates": [10.2122, 45.542]}}, {"type": "Feature", "properties": {"city": "Trondheim", "mapid": "047-G-30817", "layername": "Academy", "num": 1, "type": "academy"}, "geometry": {"type": "Point", "coordinates": [10.3943, 63.4274]}}, {"type": "Feature", "properties": {"city": "Uppsala", "mapid": "046-G-34191", "layername": "Academy", "num": 1, "type": "academy"}, "geometry": {"type": "Point", "coordinates": [17.6413, 59.8594]}}, {"type": "Feature", "properties": {"city": "Stockholm", "mapid": "046-G-34237", "layername": "Academy", "num": 1, "type": "academy"}, "geometry": {"type": "Point", "coordinates": [18.0687, 59.3171]}}, {"type": "Feature", "properties": {"city": "Udine", "mapid": "039-G-35253", "layername": "Academy", "num": 1, "type": "academy"}, "geometry": {"type": "Point", "coordinates": [13.2351, 46.0615]}}, {"type": "Feature", "properties": {"city": "Prague", "mapid": "420-G-36826", "layername": "Academy", "num": 1, "type": "academy"}, "geometry": {"type": "Point", "coordinates": [14.4323, 50.0869]}}, {"type": "Feature", "properties": {"city": "Sankt P\u00f6lten", "mapid": "043-G-37209", "layername": "Academy", "num": 1, "type": "academy"}, "geometry": {"type": "Point", "coordinates": [15.64, 48.2021]}}, {"type": "Feature", "properties": {"city": "Rijeka", "mapid": "385-G-37442", "layername": "Academy", "num": 1, "type": "academy"}, "geometry": {"type": "Point", "coordinates": [14.4385, 45.3334]}}]}