{"type": "FeatureCollection", "features": [{"type": "Feature", "geometry": {"type": "Point", "coordinates": [12.3762, 51.3477]}, "properties": {"type": "academy", "num": 2, "layername": "Academy", "mapid": "049-G-38685", "city": "Leipzig", "instinfo": "1010"}}, {"type": "Feature", "geometry": {"type": "Point", "coordinates": [11.248, 43.7717]}, "properties": {"type": "academy", "num": 2, "layername": "Academy", "mapid": "039-G-10895", "city": "Florence", "instinfo": "1101"}}, {"type": "Feature", "geometry": {"type": "Point", "coordinates": [7.6785, 45.0613]}, "properties": {"type": "academy", "num": 2, "layername": "Academy", "mapid": "039-G-27165", "city": "Turin", "instinfo": "1101"}}, {"type": "Feature", "geometry": {"type": "Point", "coordinates": [11.5703, 48.1383]}, "properties": {"type": "academy", "num": 2, "layername": "Academy", "mapid": "049-G-35406", "city": "Munich", "instinfo": "1111"}}, {"type": "Feature", "geometry": {"type": "Point", "coordinates": [13.4154, 52.5223]}, "properties": {"type": "academy", "num": 2, "layername": "Academy", "mapid": "049-G-39307", "city": "Berlin", "instinfo": "1101"}}, {"type": "Feature", "geometry": {"type": "Point", "coordinates": [14.2496, 40.8528]}, "properties": {"type": "academy", "num": 2, "layername": "Academy", "mapid": "039-G-12196", "city": "Naples", "instinfo": "1111"}}, {"type": "Feature", "geometry": {"type": "Point", "coordinates": [12.3248, 45.4393]}, "properties": {"type": "academy", "num": 2, "layername": "Academy", "mapid": "039-G-34688", "city": "Venice", "instinfo": "1100"}}, {"type": "Feature", "geometry": {"type": "Point", "coordinates": [4.8977, 52.3788]}, "properties": {"type": "academy", "num": 1, "layername": "Academy", "mapid": "031-G-21578", "city": "Amsterdam", "instinfo": "1011"}}, {"type": "Feature", "geometry": {"type": "Point", "coordinates": [9.9335, 51.5387]}, "properties": {"type": "academy", "num": 1, "layername": "Academy", "mapid": "049-G-25962", "city": "G\u00f6ttingen", "instinfo": "1000"}}, {"type": "Feature", "geometry": {"type": "Point", "coordinates": [11.0317, 50.9678]}, "properties": {"type": "academy", "num": 1, "layername": "Academy", "mapid": "049-G-26195", "city": "Erfurt", "instinfo": "1000"}}, {"type": "Feature", "geometry": {"type": "Point", "coordinates": [6.1259, 49.6107]}, "properties": {"type": "academy", "num": 1, "layername": "Academy", "mapid": "352-G-27521", "city": "Luxembourg", "instinfo": "1010"}}, {"type": "Feature", "geometry": {"type": "Point", "coordinates": [8.3866, 49.0104]}, "properties": {"type": "academy", "num": 1, "layername": "Academy", "mapid": "049-G-28316", "city": "Karlsruhe", "instinfo": "1110"}}, {"type": "Feature", "geometry": {"type": "Point", "coordinates": [9.1825, 48.7758]}, "properties": {"type": "academy", "num": 1, "layername": "Academy", "mapid": "049-G-28575", "city": "Stuttgart", "instinfo": "1111"}}, {"type": "Feature", "geometry": {"type": "Point", "coordinates": [9.1696, 45.4752]}, "properties": {"type": "academy", "num": 1, "layername": "Academy", "mapid": "039-G-29741", "city": "Milan", "instinfo": "1111"}}, {"type": "Feature", "geometry": {"type": "Point", "coordinates": [10.3943, 63.4274]}, "properties": {"type": "academy", "num": 1, "layername": "Academy", "mapid": "047-G-30817", "city": "Trondheim", "instinfo": "1100"}}, {"type": "Feature", "geometry": {"type": "Point", "coordinates": [10.7507, 59.9113]}, "properties": {"type": "academy", "num": 1, "layername": "Academy", "mapid": "047-G-31801", "city": "Kristiania", "instinfo": "1111"}}, {"type": "Feature", "geometry": {"type": "Point", "coordinates": [18.0687, 59.3171]}, "properties": {"type": "academy", "num": 1, "layername": "Academy", "mapid": "046-G-34237", "city": "Stockholm", "instinfo": "1110"}}, {"type": "Feature", "geometry": {"type": "Point", "coordinates": [12.5935, 55.6872]}, "properties": {"type": "academy", "num": 1, "layername": "Academy", "mapid": "045-G-39967", "city": "Copenhagen", "instinfo": "1111"}}, {"type": "Feature", "geometry": {"type": "Point", "coordinates": [19.0516, 47.491]}, "properties": {"type": "academy", "num": 1, "layername": "Academy", "mapid": "036-G-44485", "city": "Budapest", "instinfo": "1111"}}, {"type": "Feature", "geometry": {"type": "Point", "coordinates": [19.9436, 50.0602]}, "properties": {"type": "academy", "num": 1, "layername": "Academy", "mapid": "048-G-46041", "city": "Krak\u00f3w", "instinfo": "1101"}}, {"type": "Feature", "geometry": {"type": "Point", "coordinates": [-0.0865, 51.5106]}, "properties": {"type": "academy", "num": 1, "layername": "Academy", "mapid": "044-G-05204", "city": "London", "instinfo": "1101"}}, {"type": "Feature", "geometry": {"type": "Point", "coordinates": [30.3337, 59.9456]}, "properties": {"type": "academy", "num": 1, "layername": "Academy", "mapid": "007-G-52806", "city": "Saint Petersburg", "instinfo": "1111"}}, {"type": "Feature", "geometry": {"type": "Point", "coordinates": [-9.1487, 38.7483]}, "properties": {"type": "academy", "num": 1, "layername": "Academy", "mapid": "351-G-06667", "city": "Lisbon", "instinfo": "1101"}}, {"type": "Feature", "geometry": {"type": "Point", "coordinates": [-5.9848, 37.3878]}, "properties": {"type": "academy", "num": 1, "layername": "Academy", "mapid": "034-G-06960", "city": "Sevilla", "instinfo": "1100"}}, {"type": "Feature", "geometry": {"type": "Point", "coordinates": [8.948, 44.4069]}, "properties": {"type": "academy", "num": 1, "layername": "Academy", "mapid": "039-G-10578", "city": "Genoa", "instinfo": "1110"}}, {"type": "Feature", "geometry": {"type": "Point", "coordinates": [2.175, 41.3962]}, "properties": {"type": "academy", "num": 1, "layername": "Academy", "mapid": "034-G-08928", "city": "Barcelona", "instinfo": "1110"}}, {"type": "Feature", "geometry": {"type": "Point", "coordinates": [10.3257, 44.8013]}, "properties": {"type": "academy", "num": 1, "layername": "Academy", "mapid": "039-G-10758", "city": "Parma", "instinfo": "1100"}}, {"type": "Feature", "geometry": {"type": "Point", "coordinates": [10.9259, 44.6476]}, "properties": {"type": "academy", "num": 1, "layername": "Academy", "mapid": "039-G-10809", "city": "Modena", "instinfo": "1100"}}, {"type": "Feature", "geometry": {"type": "Point", "coordinates": [-6.276, 53.3461]}, "properties": {"type": "academy", "num": 1, "layername": "Academy", "mapid": "353-G-01102", "city": "Dublin", "instinfo": "1111"}}, {"type": "Feature", "geometry": {"type": "Point", "coordinates": [12.3895, 43.1078]}, "properties": {"type": "academy", "num": 1, "layername": "Academy", "mapid": "039-G-11520", "city": "Perugia", "instinfo": "1010"}}, {"type": "Feature", "geometry": {"type": "Point", "coordinates": [11.3295, 44.4959]}, "properties": {"type": "academy", "num": 1, "layername": "Academy", "mapid": "039-G-11618", "city": "Bologna", "instinfo": "1101"}}, {"type": "Feature", "geometry": {"type": "Point", "coordinates": [13.5176, 43.6196]}, "properties": {"type": "academy", "num": 1, "layername": "Academy", "mapid": "039-G-11740", "city": "Ancona", "instinfo": "1000"}}, {"type": "Feature", "geometry": {"type": "Point", "coordinates": [13.4025, 42.3489]}, "properties": {"type": "academy", "num": 1, "layername": "Academy", "mapid": "039-G-11822", "city": "L^'Aquila", "instinfo": "1010"}}, {"type": "Feature", "geometry": {"type": "Point", "coordinates": [20.4672, 44.802]}, "properties": {"type": "academy", "num": 1, "layername": "Academy", "mapid": "381-G-13341", "city": "Belgrade", "instinfo": "1101"}}, {"type": "Feature", "geometry": {"type": "Point", "coordinates": [23.3202, 42.6946]}, "properties": {"type": "academy", "num": 1, "layername": "Academy", "mapid": "359-G-14735", "city": "Sofia", "instinfo": "1111"}}, {"type": "Feature", "geometry": {"type": "Point", "coordinates": [26.0995, 44.4235]}, "properties": {"type": "academy", "num": 1, "layername": "Academy", "mapid": "040-G-15326", "city": "Bucharest", "instinfo": "1111"}}, {"type": "Feature", "geometry": {"type": "Point", "coordinates": [3.7244, 51.053]}, "properties": {"type": "academy", "num": 1, "layername": "Academy", "mapid": "032-G-21310", "city": "Ghent", "instinfo": "1110"}}, {"type": "Feature", "geometry": {"type": "Point", "coordinates": [4.3091, 52.0811]}, "properties": {"type": "academy", "num": 1, "layername": "Academy", "mapid": "031-G-21423", "city": "The Hague", "instinfo": "1111"}}]}