{"type": "FeatureCollection", "features": [{"type": "Feature", "geometry": {"type": "Point", "coordinates": [16.3836, 48.2056]}, "properties": {"type": "academy", "num": 7, "layername": "Academy", "mapid": "043-G-37384", "city": "Vienna", "instinfo": "1100"}}, {"type": "Feature", "geometry": {"type": "Point", "coordinates": [2.3482, 48.8581]}, "properties": {"type": "academy", "num": 4, "layername": "Academy", "mapid": "033-G-18561", "city": "Paris", "instinfo": "1010"}}, {"type": "Feature", "geometry": {"type": "Point", "coordinates": [14.4323, 50.0869]}, "properties": {"type": "academy", "num": 3, "layername": "Academy", "mapid": "420-G-36826", "city": "Prague", "instinfo": "1000"}}, {"type": "Feature", "geometry": {"type": "Point", "coordinates": [4.3502, 50.8492]}, "properties": {"type": "academy", "num": 3, "layername": "Academy", "mapid": "032-G-21783", "city": "Brussels", "instinfo": "1000"}}, {"type": "Feature", "geometry": {"type": "Point", "coordinates": [12.4888, 41.9044]}, "properties": {"type": "academy", "num": 3, "layername": "Academy", "mapid": "039-G-11402", "city": "Rome", "instinfo": "1000"}}, {"type": "Feature", "geometry": {"type": "Point", "coordinates": [-3.6916, 40.4193]}, "properties": {"type": "academy", "num": 3, "layername": "Academy", "mapid": "034-G-07699", "city": "Madrid", "instinfo": "1100"}}]}