{"type": "FeatureCollection", "crs": {"type": "name", "properties": {"name": "urn:ogc:def:crs:OGC:1.3:CRS84"}}, "features": [{"type": "Feature", "properties": {"city": "Vienna", "mapid": "043-G-37384", "layername": "Academy", "num": 7, "type": "academy"}, "geometry": {"type": "Point", "coordinates": [16.3836, 48.2056]}}, {"type": "Feature", "properties": {"city": "Paris", "mapid": "033-G-18561", "layername": "Academy", "num": 4, "type": "academy"}, "geometry": {"type": "Point", "coordinates": [2.3482, 48.8581]}}, {"type": "Feature", "properties": {"city": "Prague", "mapid": "420-G-36826", "layername": "Academy", "num": 3, "type": "academy"}, "geometry": {"type": "Point", "coordinates": [14.4323, 50.0869]}}, {"type": "Feature", "properties": {"city": "Brussels", "mapid": "032-G-21783", "layername": "Academy", "num": 3, "type": "academy"}, "geometry": {"type": "Point", "coordinates": [4.3502, 50.8492]}}, {"type": "Feature", "properties": {"city": "Rome", "mapid": "039-G-11402", "layername": "Academy", "num": 3, "type": "academy"}, "geometry": {"type": "Point", "coordinates": [12.4888, 41.9044]}}, {"type": "Feature", "properties": {"city": "Madrid", "mapid": "034-G-07699", "layername": "Academy", "num": 3, "type": "academy"}, "geometry": {"type": "Point", "coordinates": [-3.6916, 40.4193]}}, {"type": "Feature", "properties": {"city": "Leipzig", "mapid": "049-G-38685", "layername": "Academy", "num": 2, "type": "academy"}, "geometry": {"type": "Point", "coordinates": [12.3762, 51.3477]}}, {"type": "Feature", "properties": {"city": "Florence", "mapid": "039-G-10895", "layername": "Academy", "num": 2, "type": "academy"}, "geometry": {"type": "Point", "coordinates": [11.248, 43.7717]}}, {"type": "Feature", "properties": {"city": "Turin", "mapid": "039-G-27165", "layername": "Academy", "num": 2, "type": "academy"}, "geometry": {"type": "Point", "coordinates": [7.6785, 45.0613]}}, {"type": "Feature", "properties": {"city": "Munich", "mapid": "049-G-35406", "layername": "Academy", "num": 2, "type": "academy"}, "geometry": {"type": "Point", "coordinates": [11.5703, 48.1383]}}, {"type": "Feature", "properties": {"city": "Berlin", "mapid": "049-G-39307", "layername": "Academy", "num": 2, "type": "academy"}, "geometry": {"type": "Point", "coordinates": [13.4154, 52.5223]}}, {"type": "Feature", "properties": {"city": "Naples", "mapid": "039-G-12196", "layername": "Academy", "num": 2, "type": "academy"}, "geometry": {"type": "Point", "coordinates": [14.2496, 40.8528]}}, {"type": "Feature", "properties": {"city": "Venice", "mapid": "039-G-34688", "layername": "Academy", "num": 2, "type": "academy"}, "geometry": {"type": "Point", "coordinates": [12.3248, 45.4393]}}, {"type": "Feature", "properties": {"city": "Amsterdam", "mapid": "031-G-21578", "layername": "Academy", "num": 1, "type": "academy"}, "geometry": {"type": "Point", "coordinates": [4.8977, 52.3788]}}, {"type": "Feature", "properties": {"city": "G\u00f6ttingen", "mapid": "049-G-25962", "layername": "Academy", "num": 1, "type": "academy"}, "geometry": {"type": "Point", "coordinates": [9.9335, 51.5387]}}, {"type": "Feature", "properties": {"city": "Erfurt", "mapid": "049-G-26195", "layername": "Academy", "num": 1, "type": "academy"}, "geometry": {"type": "Point", "coordinates": [11.0317, 50.9678]}}, {"type": "Feature", "properties": {"city": "Luxembourg", "mapid": "352-G-27521", "layername": "Academy", "num": 1, "type": "academy"}, "geometry": {"type": "Point", "coordinates": [6.1259, 49.6107]}}, {"type": "Feature", "properties": {"city": "Karlsruhe", "mapid": "049-G-28316", "layername": "Academy", "num": 1, "type": "academy"}, "geometry": {"type": "Point", "coordinates": [8.3866, 49.0104]}}, {"type": "Feature", "properties": {"city": "Stuttgart", "mapid": "049-G-28575", "layername": "Academy", "num": 1, "type": "academy"}, "geometry": {"type": "Point", "coordinates": [9.1825, 48.7758]}}, {"type": "Feature", "properties": {"city": "Milan", "mapid": "039-G-29741", "layername": "Academy", "num": 1, "type": "academy"}, "geometry": {"type": "Point", "coordinates": [9.1696, 45.4752]}}, {"type": "Feature", "properties": {"city": "Trondheim", "mapid": "047-G-30817", "layername": "Academy", "num": 1, "type": "academy"}, "geometry": {"type": "Point", "coordinates": [10.3943, 63.4274]}}, {"type": "Feature", "properties": {"city": "Kristiania", "mapid": "047-G-31801", "layername": "Academy", "num": 1, "type": "academy"}, "geometry": {"type": "Point", "coordinates": [10.7507, 59.9113]}}, {"type": "Feature", "properties": {"city": "Stockholm", "mapid": "046-G-34237", "layername": "Academy", "num": 1, "type": "academy"}, "geometry": {"type": "Point", "coordinates": [18.0687, 59.3171]}}, {"type": "Feature", "properties": {"city": "Copenhagen", "mapid": "045-G-39967", "layername": "Academy", "num": 1, "type": "academy"}, "geometry": {"type": "Point", "coordinates": [12.5935, 55.6872]}}, {"type": "Feature", "properties": {"city": "Budapest", "mapid": "036-G-44485", "layername": "Academy", "num": 1, "type": "academy"}, "geometry": {"type": "Point", "coordinates": [19.0516, 47.491]}}, {"type": "Feature", "properties": {"city": "Krak\u00f3w", "mapid": "048-G-46041", "layername": "Academy", "num": 1, "type": "academy"}, "geometry": {"type": "Point", "coordinates": [19.9436, 50.0602]}}, {"type": "Feature", "properties": {"city": "London", "mapid": "044-G-05204", "layername": "Academy", "num": 1, "type": "academy"}, "geometry": {"type": "Point", "coordinates": [-0.0865, 51.5106]}}, {"type": "Feature", "properties": {"city": "Saint Petersburg", "mapid": "007-G-52806", "layername": "Academy", "num": 1, "type": "academy"}, "geometry": {"type": "Point", "coordinates": [30.3337, 59.9456]}}, {"type": "Feature", "properties": {"city": "Lisbon", "mapid": "351-G-06667", "layername": "Academy", "num": 1, "type": "academy"}, "geometry": {"type": "Point", "coordinates": [-9.1487, 38.7483]}}, {"type": "Feature", "properties": {"city": "Sevilla", "mapid": "034-G-06960", "layername": "Academy", "num": 1, "type": "academy"}, "geometry": {"type": "Point", "coordinates": [-5.9848, 37.3878]}}, {"type": "Feature", "properties": {"city": "Genoa", "mapid": "039-G-10578", "layername": "Academy", "num": 1, "type": "academy"}, "geometry": {"type": "Point", "coordinates": [8.948, 44.4069]}}, {"type": "Feature", "properties": {"city": "Barcelona", "mapid": "034-G-08928", "layername": "Academy", "num": 1, "type": "academy"}, "geometry": {"type": "Point", "coordinates": [2.175, 41.3962]}}, {"type": "Feature", "properties": {"city": "Parma", "mapid": "039-G-10758", "layername": "Academy", "num": 1, "type": "academy"}, "geometry": {"type": "Point", "coordinates": [10.3257, 44.8013]}}, {"type": "Feature", "properties": {"city": "Modena", "mapid": "039-G-10809", "layername": "Academy", "num": 1, "type": "academy"}, "geometry": {"type": "Point", "coordinates": [10.9259, 44.6476]}}, {"type": "Feature", "properties": {"city": "Dublin", "mapid": "353-G-01102", "layername": "Academy", "num": 1, "type": "academy"}, "geometry": {"type": "Point", "coordinates": [-6.276, 53.3461]}}, {"type": "Feature", "properties": {"city": "Perugia", "mapid": "039-G-11520", "layername": "Academy", "num": 1, "type": "academy"}, "geometry": {"type": "Point", "coordinates": [12.3895, 43.1078]}}, {"type": "Feature", "properties": {"city": "Bologna", "mapid": "039-G-11618", "layername": "Academy", "num": 1, "type": "academy"}, "geometry": {"type": "Point", "coordinates": [11.3295, 44.4959]}}, {"type": "Feature", "properties": {"city": "Ancona", "mapid": "039-G-11740", "layername": "Academy", "num": 1, "type": "academy"}, "geometry": {"type": "Point", "coordinates": [13.5176, 43.6196]}}, {"type": "Feature", "properties": {"city": "L^'Aquila", "mapid": "039-G-11822", "layername": "Academy", "num": 1, "type": "academy"}, "geometry": {"type": "Point", "coordinates": [13.4025, 42.3489]}}, {"type": "Feature", "properties": {"city": "Belgrade", "mapid": "381-G-13341", "layername": "Academy", "num": 1, "type": "academy"}, "geometry": {"type": "Point", "coordinates": [20.4672, 44.802]}}, {"type": "Feature", "properties": {"city": "Sofia", "mapid": "359-G-14735", "layername": "Academy", "num": 1, "type": "academy"}, "geometry": {"type": "Point", "coordinates": [23.3202, 42.6946]}}, {"type": "Feature", "properties": {"city": "Bucharest", "mapid": "040-G-15326", "layername": "Academy", "num": 1, "type": "academy"}, "geometry": {"type": "Point", "coordinates": [26.0995, 44.4235]}}, {"type": "Feature", "properties": {"city": "Ghent", "mapid": "032-G-21310", "layername": "Academy", "num": 1, "type": "academy"}, "geometry": {"type": "Point", "coordinates": [3.7244, 51.053]}}, {"type": "Feature", "properties": {"city": "The Hague", "mapid": "031-G-21423", "layername": "Academy", "num": 1, "type": "academy"}, "geometry": {"type": "Point", "coordinates": [4.3091, 52.0811]}}]}