{"type": "FeatureCollection", "features": [{"type": "Feature", "geometry": {"type": "Point", "coordinates": [16.3836, 48.2056]}, "properties": {"type": "academy", "num": 20, "layername": "Academy", "mapid": "043-G-37384", "city": "Vienna", "instinfo": "1110"}}, {"type": "Feature", "geometry": {"type": "Point", "coordinates": [2.3482, 48.8581]}, "properties": {"type": "academy", "num": 8, "layername": "Academy", "mapid": "033-G-18561", "city": "Paris", "instinfo": "1111"}}, {"type": "Feature", "geometry": {"type": "Point", "coordinates": [12.4888, 41.9044]}, "properties": {"type": "academy", "num": 7, "layername": "Academy", "mapid": "039-G-11402", "city": "Rome", "instinfo": "1101"}}, {"type": "Feature", "geometry": {"type": "Point", "coordinates": [20.4672, 44.802]}, "properties": {"type": "academy", "num": 5, "layername": "Academy", "mapid": "381-G-13341", "city": "Belgrade", "instinfo": "1000"}}, {"type": "Feature", "geometry": {"type": "Point", "coordinates": [26.0995, 44.4235]}, "properties": {"type": "academy", "num": 5, "layername": "Academy", "mapid": "040-G-15326", "city": "Bucharest", "instinfo": "1000"}}, {"type": "Feature", "geometry": {"type": "Point", "coordinates": [4.3502, 50.8492]}, "properties": {"type": "academy", "num": 5, "layername": "Academy", "mapid": "032-G-21783", "city": "Brussels", "instinfo": "1000"}}, {"type": "Feature", "geometry": {"type": "Point", "coordinates": [11.5703, 48.1383]}, "properties": {"type": "academy", "num": 4, "layername": "Academy", "mapid": "049-G-35406", "city": "Munich", "instinfo": "1010"}}, {"type": "Feature", "geometry": {"type": "Point", "coordinates": [4.8977, 52.3788]}, "properties": {"type": "academy", "num": 4, "layername": "Academy", "mapid": "031-G-21578", "city": "Amsterdam", "instinfo": "1000"}}, {"type": "Feature", "geometry": {"type": "Point", "coordinates": [24.7427, 59.4268]}, "properties": {"type": "academy", "num": 4, "layername": "Academy", "mapid": "372-G-51146", "city": "Tallinn", "instinfo": "1100"}}, {"type": "Feature", "geometry": {"type": "Point", "coordinates": [4.3091, 52.0811]}, "properties": {"type": "academy", "num": 4, "layername": "Academy", "mapid": "031-G-21423", "city": "The Hague", "instinfo": "1000"}}, {"type": "Feature", "geometry": {"type": "Point", "coordinates": [19.0516, 47.491]}, "properties": {"type": "academy", "num": 3, "layername": "Academy", "mapid": "036-G-44485", "city": "Budapest", "instinfo": "1100"}}, {"type": "Feature", "geometry": {"type": "Point", "coordinates": [19.8392, 45.2646]}, "properties": {"type": "academy", "num": 3, "layername": "Academy", "mapid": "381-G-46612", "city": "Novi Sad", "instinfo": "1000"}}, {"type": "Feature", "geometry": {"type": "Point", "coordinates": [9.1696, 45.4752]}, "properties": {"type": "academy", "num": 3, "layername": "Academy", "mapid": "039-G-29741", "city": "Milan", "instinfo": "1000"}}, {"type": "Feature", "geometry": {"type": "Point", "coordinates": [23.7367, 37.9765]}, "properties": {"type": "academy", "num": 3, "layername": "Academy", "mapid": "030-G-14172", "city": "Athens", "instinfo": "1111"}}, {"type": "Feature", "geometry": {"type": "Point", "coordinates": [10.7507, 59.9113]}, "properties": {"type": "academy", "num": 3, "layername": "Academy", "mapid": "047-G-31801", "city": "Oslo", "instinfo": "1000"}}, {"type": "Feature", "geometry": {"type": "Point", "coordinates": [11.248, 43.7717]}, "properties": {"type": "academy", "num": 3, "layername": "Academy", "mapid": "039-G-10895", "city": "Florence", "instinfo": "1000"}}, {"type": "Feature", "geometry": {"type": "Point", "coordinates": [21.1679, 42.6706]}, "properties": {"type": "academy", "num": 3, "layername": "Academy", "mapid": "381-G-13500", "city": "Pri\u0161tina", "instinfo": "1000"}}, {"type": "Feature", "geometry": {"type": "Point", "coordinates": [37.6268, 55.7515]}, "properties": {"type": "academy", "num": 3, "layername": "Academy", "mapid": "007-G-54635", "city": "Moscow", "instinfo": "1100"}}]}