{"type": "FeatureCollection", "features": [{"type": "Feature", "geometry": {"type": "Point", "coordinates": [26.0995, 44.4235]}, "properties": {"type": "archive", "num": 3, "layername": "Archive", "mapid": "040-G-15326", "city": "Bucharest", "instinfo": "0111"}}, {"type": "Feature", "geometry": {"type": "Point", "coordinates": [12.5935, 55.6872]}, "properties": {"type": "archive", "num": 3, "layername": "Archive", "mapid": "045-G-39967", "city": "Copenhagen", "instinfo": "1111"}}, {"type": "Feature", "geometry": {"type": "Point", "coordinates": [13.4154, 52.5223]}, "properties": {"type": "archive", "num": 3, "layername": "Archive", "mapid": "049-T-90152", "city": "East Berlin", "instinfo": "1111"}}, {"type": "Feature", "geometry": {"type": "Point", "coordinates": [-0.0865, 51.5106]}, "properties": {"type": "archive", "num": 3, "layername": "Archive", "mapid": "044-G-05204", "city": "London", "instinfo": "1100"}}, {"type": "Feature", "geometry": {"type": "Point", "coordinates": [-1.4005, 43.5233]}, "properties": {"type": "archive", "num": 3, "layername": "Archive", "mapid": "033-T-90030", "city": "Vincennes", "instinfo": "0101"}}, {"type": "Feature", "geometry": {"type": "Point", "coordinates": [13.0481, 52.3989]}, "properties": {"type": "archive", "num": 3, "layername": "Archive", "mapid": "049-G-39150", "city": "Potsdam", "instinfo": "0110"}}, {"type": "Feature", "geometry": {"type": "Point", "coordinates": [10.7507, 59.9113]}, "properties": {"type": "archive", "num": 3, "layername": "Archive", "mapid": "047-G-31801", "city": "Oslo", "instinfo": "0111"}}, {"type": "Feature", "geometry": {"type": "Point", "coordinates": [8.544, 47.378]}, "properties": {"type": "archive", "num": 3, "layername": "Archive", "mapid": "041-G-29851", "city": "Z\u00fcrich", "instinfo": "0111"}}, {"type": "Feature", "geometry": {"type": "Point", "coordinates": [4.3502, 50.8492]}, "properties": {"type": "archive", "num": 3, "layername": "Archive", "mapid": "032-G-21783", "city": "Brussels", "instinfo": "0111"}}, {"type": "Feature", "geometry": {"type": "Point", "coordinates": [14.4323, 50.0869]}, "properties": {"type": "archive", "num": 3, "layername": "Archive", "mapid": "420-G-36826", "city": "Prague", "instinfo": "1111"}}, {"type": "Feature", "geometry": {"type": "Point", "coordinates": [23.832, 53.6786]}, "properties": {"type": "archive", "num": 3, "layername": "Archive", "mapid": "375-G-49341", "city": "Hrodna", "instinfo": "0101"}}, {"type": "Feature", "geometry": {"type": "Point", "coordinates": [41.9705, 45.0373]}, "properties": {"type": "archive", "num": 3, "layername": "Archive", "mapid": "007-G-55235", "city": "Stavropol", "instinfo": "0101"}}, {"type": "Feature", "geometry": {"type": "Point", "coordinates": [20.4672, 44.802]}, "properties": {"type": "archive", "num": 3, "layername": "Archive", "mapid": "381-G-13341", "city": "Belgrade", "instinfo": "0111"}}, {"type": "Feature", "geometry": {"type": "Point", "coordinates": [7.4295, 46.9479]}, "properties": {"type": "archive", "num": 3, "layername": "Archive", "mapid": "041-G-26824", "city": "Bern", "instinfo": "1111"}}, {"type": "Feature", "geometry": {"type": "Point", "coordinates": [9.1825, 48.7758]}, "properties": {"type": "archive", "num": 2, "layername": "Archive", "mapid": "049-G-28575", "city": "Stuttgart", "instinfo": "1111"}}, {"type": "Feature", "geometry": {"type": "Point", "coordinates": [15.9724, 45.8135]}, "properties": {"type": "archive", "num": 2, "layername": "Archive", "mapid": "385-G-38250", "city": "Zagreb", "instinfo": "1111"}}, {"type": "Feature", "geometry": {"type": "Point", "coordinates": [10.3913, 55.3963]}, "properties": {"type": "archive", "num": 2, "layername": "Archive", "mapid": "045-G-24665", "city": "Odense", "instinfo": "0110"}}, {"type": "Feature", "geometry": {"type": "Point", "coordinates": [7.5895, 47.5495]}, "properties": {"type": "archive", "num": 2, "layername": "Archive", "mapid": "041-G-26913", "city": "Basel", "instinfo": "0111"}}, {"type": "Feature", "geometry": {"type": "Point", "coordinates": [10.205, 56.1522]}, "properties": {"type": "archive", "num": 2, "layername": "Archive", "mapid": "045-G-24694", "city": "\u00c3\u2026rhus", "instinfo": "0111"}}, {"type": "Feature", "geometry": {"type": "Point", "coordinates": [24.0273, 49.8454]}, "properties": {"type": "archive", "num": 2, "layername": "Archive", "mapid": "380-G-48268", "city": "Lviv", "instinfo": "1101"}}, {"type": "Feature", "geometry": {"type": "Point", "coordinates": [3.7244, 51.053]}, "properties": {"type": "archive", "num": 2, "layername": "Archive", "mapid": "032-G-21310", "city": "Ghent", "instinfo": "1110"}}, {"type": "Feature", "geometry": {"type": "Point", "coordinates": [38.9805555555636, 45.0422222222741]}, "properties": {"type": "archive", "num": 2, "layername": "Archive", "mapid": "007-G-54268", "city": "Krasnodar", "instinfo": "0100"}}, {"type": "Feature", "geometry": {"type": "Point", "coordinates": [5.4439, 43.5254]}, "properties": {"type": "archive", "num": 2, "layername": "Archive", "mapid": "033-G-09979", "city": "Aix-en-Provence", "instinfo": "1110"}}, {"type": "Feature", "geometry": {"type": "Point", "coordinates": [4.3091, 52.0811]}, "properties": {"type": "archive", "num": 2, "layername": "Archive", "mapid": "031-G-21423", "city": "The Hague", "instinfo": "0110"}}, {"type": "Feature", "geometry": {"type": "Point", "coordinates": [34.3641, 53.2327]}, "properties": {"type": "archive", "num": 2, "layername": "Archive", "mapid": "007-G-54335", "city": "Bryansk", "instinfo": "0101"}}, {"type": "Feature", "geometry": {"type": "Point", "coordinates": [2.1984, 48.8919]}, "properties": {"type": "archive", "num": 2, "layername": "Archive", "mapid": "033-G-18583", "city": "Nanterre", "instinfo": "0110"}}, {"type": "Feature", "geometry": {"type": "Point", "coordinates": [36.1949, 51.7488]}, "properties": {"type": "archive", "num": 2, "layername": "Archive", "mapid": "007-G-54409", "city": "Kursk", "instinfo": "0101"}}, {"type": "Feature", "geometry": {"type": "Point", "coordinates": [37.6178, 54.1923]}, "properties": {"type": "archive", "num": 2, "layername": "Archive", "mapid": "007-G-54566", "city": "Tula", "instinfo": "0100"}}, {"type": "Feature", "geometry": {"type": "Point", "coordinates": [39.7125, 47.236]}, "properties": {"type": "archive", "num": 2, "layername": "Archive", "mapid": "007-G-55208", "city": "Rostov", "instinfo": "0101"}}, {"type": "Feature", "geometry": {"type": "Point", "coordinates": [17.1073, 48.1447]}, "properties": {"type": "archive", "num": 2, "layername": "Archive", "mapid": "421-G-44735", "city": "Bratislava", "instinfo": "1111"}}, {"type": "Feature", "geometry": {"type": "Point", "coordinates": [45.9836, 51.5266]}, "properties": {"type": "archive", "num": 2, "layername": "Archive", "mapid": "007-G-55385", "city": "Saratov", "instinfo": "0101"}}, {"type": "Feature", "geometry": {"type": "Point", "coordinates": [-5.6601, 40.9639]}, "properties": {"type": "archive", "num": 2, "layername": "Archive", "mapid": "034-G-07557", "city": "Salamanca", "instinfo": "0100"}}, {"type": "Feature", "geometry": {"type": "Point", "coordinates": [47.2497, 56.1348]}, "properties": {"type": "archive", "num": 2, "layername": "Archive", "mapid": "007-G-55453", "city": "Cheboksary", "instinfo": "1101"}}, {"type": "Feature", "geometry": {"type": "Point", "coordinates": [-4.1193, 40.9459]}, "properties": {"type": "archive", "num": 2, "layername": "Archive", "mapid": "034-G-07638", "city": "Segovia", "instinfo": "0100"}}, {"type": "Feature", "geometry": {"type": "Point", "coordinates": [53.2156, 56.8447]}, "properties": {"type": "archive", "num": 2, "layername": "Archive", "mapid": "007-G-55834", "city": "Izhevsk", "instinfo": "1101"}}, {"type": "Feature", "geometry": {"type": "Point", "coordinates": [11.5703, 48.1383]}, "properties": {"type": "archive", "num": 2, "layername": "Archive", "mapid": "049-G-35406", "city": "Munich", "instinfo": "0101"}}, {"type": "Feature", "geometry": {"type": "Point", "coordinates": [-3.1643, 40.6298]}, "properties": {"type": "archive", "num": 2, "layername": "Archive", "mapid": "034-G-07712", "city": "Guadalajara", "instinfo": "0100"}}, {"type": "Feature", "geometry": {"type": "Point", "coordinates": [13.5044, 59.3788]}, "properties": {"type": "archive", "num": 2, "layername": "Archive", "mapid": "046-G-32582", "city": "Karlstad", "instinfo": "0100"}}, {"type": "Feature", "geometry": {"type": "Point", "coordinates": [7.0858, 50.7367]}, "properties": {"type": "archive", "num": 2, "layername": "Archive", "mapid": "049-G-23718", "city": "Bonn", "instinfo": "1101"}}, {"type": "Feature", "geometry": {"type": "Point", "coordinates": [4.3977, 51.2213]}, "properties": {"type": "archive", "num": 2, "layername": "Archive", "mapid": "032-G-21858", "city": "Antwerp", "instinfo": "0100"}}, {"type": "Feature", "geometry": {"type": "Point", "coordinates": [30.3312, 53.893]}, "properties": {"type": "archive", "num": 2, "layername": "Archive", "mapid": "375-G-50069", "city": "Mahilyow", "instinfo": "0101"}}, {"type": "Feature", "geometry": {"type": "Point", "coordinates": [30.9863, 52.4177]}, "properties": {"type": "archive", "num": 2, "layername": "Archive", "mapid": "375-G-50207", "city": "Homel", "instinfo": "0101"}}, {"type": "Feature", "geometry": {"type": "Point", "coordinates": [28.848, 47.0141]}, "properties": {"type": "archive", "num": 2, "layername": "Archive", "mapid": "373-G-50306", "city": "Kishinyov", "instinfo": "1101"}}, {"type": "Feature", "geometry": {"type": "Point", "coordinates": [7.5949, 50.3548]}, "properties": {"type": "archive", "num": 2, "layername": "Archive", "mapid": "049-G-28019", "city": "Koblenz", "instinfo": "0100"}}, {"type": "Feature", "geometry": {"type": "Point", "coordinates": [65.3327777777778, 55.4394444444445]}, "properties": {"type": "archive", "num": 2, "layername": "Archive", "mapid": "007-T-90158", "city": "Kurgan", "instinfo": "0101"}}, {"type": "Feature", "geometry": {"type": "Point", "coordinates": [13.4142235445706, 52.5223]}, "properties": {"type": "archive", "num": 2, "layername": "Archive", "mapid": "049-T-90193", "city": "West Berlin", "instinfo": "1110"}}, {"type": "Feature", "geometry": {"type": "Point", "coordinates": [-4.0891, 52.4148]}, "properties": {"type": "archive", "num": 2, "layername": "Archive", "mapid": "044-G-01436", "city": "Aberystwyth", "instinfo": "0110"}}, {"type": "Feature", "geometry": {"type": "Point", "coordinates": [21.4418, 42.0053]}, "properties": {"type": "archive", "num": 2, "layername": "Archive", "mapid": "389-G-13750", "city": "Skopje", "instinfo": "1111"}}, {"type": "Feature", "geometry": {"type": "Point", "coordinates": [5.5735, 50.6455]}, "properties": {"type": "archive", "num": 2, "layername": "Archive", "mapid": "032-G-22423", "city": "Li\u00e8ge", "instinfo": "0100"}}, {"type": "Feature", "geometry": {"type": "Point", "coordinates": [17.6413, 59.8594]}, "properties": {"type": "archive", "num": 2, "layername": "Archive", "mapid": "046-G-34191", "city": "Uppsala", "instinfo": "1100"}}, {"type": "Feature", "geometry": {"type": "Point", "coordinates": [27.2753, 61.691]}, "properties": {"type": "archive", "num": 2, "layername": "Archive", "mapid": "358-G-51248", "city": "Mikkeli", "instinfo": "0100"}}, {"type": "Feature", "geometry": {"type": "Point", "coordinates": [26.7231, 58.3738]}, "properties": {"type": "archive", "num": 2, "layername": "Archive", "mapid": "372-G-51512", "city": "Tartu", "instinfo": "0101"}}, {"type": "Feature", "geometry": {"type": "Point", "coordinates": [25.6321, 43.0748]}, "properties": {"type": "archive", "num": 2, "layername": "Archive", "mapid": "359-G-15131", "city": "Veliko T\u016drnovo", "instinfo": "0101"}}, {"type": "Feature", "geometry": {"type": "Point", "coordinates": [19.8392, 45.2646]}, "properties": {"type": "archive", "num": 2, "layername": "Archive", "mapid": "381-G-46612", "city": "Novi Sad", "instinfo": "0101"}}, {"type": "Feature", "geometry": {"type": "Point", "coordinates": [28.3395, 57.816]}, "properties": {"type": "archive", "num": 2, "layername": "Archive", "mapid": "007-G-52489", "city": "Pskov", "instinfo": "0100"}}, {"type": "Feature", "geometry": {"type": "Point", "coordinates": [7.8284, 47.9853]}, "properties": {"type": "archive", "num": 2, "layername": "Archive", "mapid": "049-G-28343", "city": "Freiburg im Breisgau", "instinfo": "0100"}}, {"type": "Feature", "geometry": {"type": "Point", "coordinates": [18.1632, 40.3508]}, "properties": {"type": "archive", "num": 1, "layername": "Archive", "mapid": "039-G-12438", "city": "Lecce", "instinfo": "0100"}}, {"type": "Feature", "geometry": {"type": "Point", "coordinates": [-4.3087, 51.8583]}, "properties": {"type": "archive", "num": 1, "layername": "Archive", "mapid": "044-G-01251", "city": "Carmarthen", "instinfo": "0110"}}, {"type": "Feature", "geometry": {"type": "Point", "coordinates": [17.815, 43.3456]}, "properties": {"type": "archive", "num": 1, "layername": "Archive", "mapid": "387-G-12560", "city": "Mostar", "instinfo": "0100"}}, {"type": "Feature", "geometry": {"type": "Point", "coordinates": [18.0937, 42.6537]}, "properties": {"type": "archive", "num": 1, "layername": "Archive", "mapid": "385-G-12594", "city": "Dubrovnik", "instinfo": "1100"}}, {"type": "Feature", "geometry": {"type": "Point", "coordinates": [-4.2272, 57.4769]}, "properties": {"type": "archive", "num": 1, "layername": "Archive", "mapid": "044-G-00127", "city": "Inverness", "instinfo": "0110"}}, {"type": "Feature", "geometry": {"type": "Point", "coordinates": [18.4165, 43.8596]}, "properties": {"type": "archive", "num": 1, "layername": "Archive", "mapid": "387-G-12779", "city": "Sarajevo", "instinfo": "1101"}}, {"type": "Feature", "geometry": {"type": "Point", "coordinates": [18.926, 42.3912]}, "properties": {"type": "archive", "num": 1, "layername": "Archive", "mapid": "381-G-13032", "city": "Cetinje", "instinfo": "0111"}}, {"type": "Feature", "geometry": {"type": "Point", "coordinates": [21.1679, 42.6706]}, "properties": {"type": "archive", "num": 1, "layername": "Archive", "mapid": "381-G-13500", "city": "Pri\u0161tina", "instinfo": "0101"}}, {"type": "Feature", "geometry": {"type": "Point", "coordinates": [-4.272, 53.1389]}, "properties": {"type": "archive", "num": 1, "layername": "Archive", "mapid": "044-G-01361", "city": null, "instinfo": "0100"}}, {"type": "Feature", "geometry": {"type": "Point", "coordinates": [19.8211, 41.3283]}, "properties": {"type": "archive", "num": 1, "layername": "Archive", "mapid": "355-G-13651", "city": "Tirana", "instinfo": "1100"}}, {"type": "Feature", "geometry": {"type": "Point", "coordinates": [20.9708, 42.0088]}, "properties": {"type": "archive", "num": 1, "layername": "Archive", "mapid": "389-G-13712", "city": "Tetovo", "instinfo": "0101"}}, {"type": "Feature", "geometry": {"type": "Point", "coordinates": [20.8006, 41.1168]}, "properties": {"type": "archive", "num": 1, "layername": "Archive", "mapid": "389-G-13720", "city": "Ohrid", "instinfo": "0101"}}, {"type": "Feature", "geometry": {"type": "Point", "coordinates": [21.3305, 41.0285]}, "properties": {"type": "archive", "num": 1, "layername": "Archive", "mapid": "389-G-13736", "city": "Bitola", "instinfo": "0101"}}, {"type": "Feature", "geometry": {"type": "Point", "coordinates": [21.5537, 41.349]}, "properties": {"type": "archive", "num": 1, "layername": "Archive", "mapid": "389-G-13740", "city": "Prilep", "instinfo": "1101"}}, {"type": "Feature", "geometry": {"type": "Point", "coordinates": [21.7709, 41.7152]}, "properties": {"type": "archive", "num": 1, "layername": "Archive", "mapid": "389-G-13751", "city": "Veles", "instinfo": "0101"}}, {"type": "Feature", "geometry": {"type": "Point", "coordinates": [21.7203, 42.1344]}, "properties": {"type": "archive", "num": 1, "layername": "Archive", "mapid": "389-G-13753", "city": "Kumanovo", "instinfo": "0100"}}, {"type": "Feature", "geometry": {"type": "Point", "coordinates": [22.1895, 41.7409]}, "properties": {"type": "archive", "num": 1, "layername": "Archive", "mapid": "389-G-13757", "city": "\u0160tip", "instinfo": "0101"}}, {"type": "Feature", "geometry": {"type": "Point", "coordinates": [22.6431, 41.4376]}, "properties": {"type": "archive", "num": 1, "layername": "Archive", "mapid": "389-G-14500", "city": "Strumica", "instinfo": "0101"}}, {"type": "Feature", "geometry": {"type": "Point", "coordinates": [23.0931, 42.0157]}, "properties": {"type": "archive", "num": 1, "layername": "Archive", "mapid": "359-G-14521", "city": "Blagoevgrad", "instinfo": "0101"}}, {"type": "Feature", "geometry": {"type": "Point", "coordinates": [24.751, 42.1436]}, "properties": {"type": "archive", "num": 1, "layername": "Archive", "mapid": "359-G-14602", "city": "Plovdiv", "instinfo": "0101"}}, {"type": "Feature", "geometry": {"type": "Point", "coordinates": [24.6969, 41.5783]}, "properties": {"type": "archive", "num": 1, "layername": "Archive", "mapid": "359-G-14611", "city": "Smolyan", "instinfo": "0101"}}, {"type": "Feature", "geometry": {"type": "Point", "coordinates": [22.6998, 42.2834]}, "properties": {"type": "archive", "num": 1, "layername": "Archive", "mapid": "359-G-14655", "city": "Kyustendil", "instinfo": "0101"}}, {"type": "Feature", "geometry": {"type": "Point", "coordinates": [23.0398, 42.6031]}, "properties": {"type": "archive", "num": 1, "layername": "Archive", "mapid": "359-G-14673", "city": "Pernik", "instinfo": "0100"}}, {"type": "Feature", "geometry": {"type": "Point", "coordinates": [23.219, 43.4058]}, "properties": {"type": "archive", "num": 1, "layername": "Archive", "mapid": "359-G-14699", "city": "Mikhaylovgrad", "instinfo": "0101"}}, {"type": "Feature", "geometry": {"type": "Point", "coordinates": [23.5474, 43.2071]}, "properties": {"type": "archive", "num": 1, "layername": "Archive", "mapid": "359-G-14713", "city": "Vratsa", "instinfo": "0101"}}, {"type": "Feature", "geometry": {"type": "Point", "coordinates": [22.8743, 43.9904]}, "properties": {"type": "archive", "num": 1, "layername": "Archive", "mapid": "359-G-14767", "city": null, "instinfo": "0101"}}, {"type": "Feature", "geometry": {"type": "Point", "coordinates": [24.3248, 42.1908]}, "properties": {"type": "archive", "num": 1, "layername": "Archive", "mapid": "359-G-15035", "city": "Pazardzhik", "instinfo": "0101"}}, {"type": "Feature", "geometry": {"type": "Point", "coordinates": [24.7154, 43.1373]}, "properties": {"type": "archive", "num": 1, "layername": "Archive", "mapid": "359-G-15064", "city": "Lovech", "instinfo": "0101"}}, {"type": "Feature", "geometry": {"type": "Point", "coordinates": [24.6181, 43.4092]}, "properties": {"type": "archive", "num": 1, "layername": "Archive", "mapid": "359-G-15065", "city": null, "instinfo": "0101"}}, {"type": "Feature", "geometry": {"type": "Point", "coordinates": [25.3173, 42.8754]}, "properties": {"type": "archive", "num": 1, "layername": "Archive", "mapid": "359-G-15103", "city": null, "instinfo": "0101"}}, {"type": "Feature", "geometry": {"type": "Point", "coordinates": [25.6338, 42.4258]}, "properties": {"type": "archive", "num": 1, "layername": "Archive", "mapid": "359-G-15111", "city": null, "instinfo": "0101"}}, {"type": "Feature", "geometry": {"type": "Point", "coordinates": [26.5218, 43.5253]}, "properties": {"type": "archive", "num": 1, "layername": "Archive", "mapid": "359-G-15172", "city": null, "instinfo": "0100"}}, {"type": "Feature", "geometry": {"type": "Point", "coordinates": [26.3161, 42.6819]}, "properties": {"type": "archive", "num": 1, "layername": "Archive", "mapid": "359-G-15196", "city": null, "instinfo": "0100"}}, {"type": "Feature", "geometry": {"type": "Point", "coordinates": [26.518, 42.4807]}, "properties": {"type": "archive", "num": 1, "layername": "Archive", "mapid": "359-G-15210", "city": "Yambol", "instinfo": "0100"}}, {"type": "Feature", "geometry": {"type": "Point", "coordinates": [25.9774, 43.8416]}, "properties": {"type": "archive", "num": 1, "layername": "Archive", "mapid": "359-G-15236", "city": "Ruse", "instinfo": "0101"}}, {"type": "Feature", "geometry": {"type": "Point", "coordinates": [27.2675, 44.1144]}, "properties": {"type": "archive", "num": 1, "layername": "Archive", "mapid": "359-G-15382", "city": null, "instinfo": "0101"}}, {"type": "Feature", "geometry": {"type": "Point", "coordinates": [26.9307, 43.2733]}, "properties": {"type": "archive", "num": 1, "layername": "Archive", "mapid": "359-G-15500", "city": "Shumen", "instinfo": "0101"}}, {"type": "Feature", "geometry": {"type": "Point", "coordinates": [27.9187, 43.2063]}, "properties": {"type": "archive", "num": 1, "layername": "Archive", "mapid": "359-G-15520", "city": "Varna", "instinfo": "0101"}}, {"type": "Feature", "geometry": {"type": "Point", "coordinates": [27.8283, 43.5707]}, "properties": {"type": "archive", "num": 1, "layername": "Archive", "mapid": "359-G-15524", "city": "Tolbukhin", "instinfo": "0101"}}, {"type": "Feature", "geometry": {"type": "Point", "coordinates": [27.463, 42.5137]}, "properties": {"type": "archive", "num": 1, "layername": "Archive", "mapid": "359-G-15529", "city": null, "instinfo": "0101"}}, {"type": "Feature", "geometry": {"type": "Point", "coordinates": [25.3758, 41.6416]}, "properties": {"type": "archive", "num": 1, "layername": "Archive", "mapid": "359-G-15563", "city": "K\u016drdzhali", "instinfo": "0100"}}, {"type": "Feature", "geometry": {"type": "Point", "coordinates": [25.5566, 41.934]}, "properties": {"type": "archive", "num": 1, "layername": "Archive", "mapid": "359-G-15568", "city": "Khaskovo", "instinfo": "0101"}}, {"type": "Feature", "geometry": {"type": "Point", "coordinates": [33.3563, 35.1697]}, "properties": {"type": "archive", "num": 1, "layername": "Archive", "mapid": "357-G-16157", "city": "Nicosia", "instinfo": "1101"}}, {"type": "Feature", "geometry": {"type": "Point", "coordinates": [34.1115, 44.959]}, "properties": {"type": "archive", "num": 1, "layername": "Archive", "mapid": "380-G-16494", "city": "Simferopol", "instinfo": "0100"}}, {"type": "Feature", "geometry": {"type": "Point", "coordinates": [-2.8941, 53.1976]}, "properties": {"type": "archive", "num": 1, "layername": "Archive", "mapid": "044-G-01650", "city": "Chester", "instinfo": "0110"}}, {"type": "Feature", "geometry": {"type": "Point", "coordinates": [42.0481, 44.2288]}, "properties": {"type": "archive", "num": 1, "layername": "Archive", "mapid": "007-G-16795", "city": "Cherkessk", "instinfo": "0100"}}, {"type": "Feature", "geometry": {"type": "Point", "coordinates": [43.6279, 43.4943]}, "properties": {"type": "archive", "num": 1, "layername": "Archive", "mapid": "007-G-16861", "city": "Nalchik", "instinfo": "0101"}}, {"type": "Feature", "geometry": {"type": "Point", "coordinates": [-3.5116, 50.7226]}, "properties": {"type": "archive", "num": 1, "layername": "Archive", "mapid": "044-G-01687", "city": "Exeter", "instinfo": "0110"}}, {"type": "Feature", "geometry": {"type": "Point", "coordinates": [44.6676, 43.0308]}, "properties": {"type": "archive", "num": 1, "layername": "Archive", "mapid": "007-G-16910", "city": "Vladikavkaz", "instinfo": "0101"}}, {"type": "Feature", "geometry": {"type": "Point", "coordinates": [-3.0965, 51.0195]}, "properties": {"type": "archive", "num": 1, "layername": "Archive", "mapid": "044-G-01702", "city": "Taunton", "instinfo": "0111"}}, {"type": "Feature", "geometry": {"type": "Point", "coordinates": [0.168, 45.651]}, "properties": {"type": "archive", "num": 1, "layername": "Archive", "mapid": "033-G-17364", "city": "Angoul\u00e8me", "instinfo": "0110"}}, {"type": "Feature", "geometry": {"type": "Point", "coordinates": [1.2624, 45.8214]}, "properties": {"type": "archive", "num": 1, "layername": "Archive", "mapid": "033-G-17434", "city": "Limoges", "instinfo": "0110"}}, {"type": "Feature", "geometry": {"type": "Point", "coordinates": [0.7191, 45.1831]}, "properties": {"type": "archive", "num": 1, "layername": "Archive", "mapid": "033-G-17455", "city": "P\u00e9rigueux", "instinfo": "0110"}}, {"type": "Feature", "geometry": {"type": "Point", "coordinates": [0.3503, 46.5784]}, "properties": {"type": "archive", "num": 1, "layername": "Archive", "mapid": "033-G-17479", "city": "Poitiers", "instinfo": "0110"}}, {"type": "Feature", "geometry": {"type": "Point", "coordinates": [0.6887, 47.39]}, "properties": {"type": "archive", "num": 1, "layername": "Archive", "mapid": "033-G-17585", "city": "Tours", "instinfo": "1100"}}, {"type": "Feature", "geometry": {"type": "Point", "coordinates": [1.3308, 47.5898]}, "properties": {"type": "archive", "num": 1, "layername": "Archive", "mapid": "033-G-17624", "city": "Blois", "instinfo": "0110"}}, {"type": "Feature", "geometry": {"type": "Point", "coordinates": [1.696, 46.8127]}, "properties": {"type": "archive", "num": 1, "layername": "Archive", "mapid": "033-G-17668", "city": "Ch\u00e2teauroux", "instinfo": "0110"}}, {"type": "Feature", "geometry": {"type": "Point", "coordinates": [2.404, 47.0846]}, "properties": {"type": "archive", "num": 1, "layername": "Archive", "mapid": "033-G-17783", "city": "Bourges", "instinfo": "0111"}}, {"type": "Feature", "geometry": {"type": "Point", "coordinates": [1.5232, 45.1566]}, "properties": {"type": "archive", "num": 1, "layername": "Archive", "mapid": "033-G-17820", "city": "Brive-la-Gaillarde", "instinfo": "0110"}}, {"type": "Feature", "geometry": {"type": "Point", "coordinates": [1.8728, 46.1741]}, "properties": {"type": "archive", "num": 1, "layername": "Archive", "mapid": "033-G-17866", "city": "Gu\u00e9ret", "instinfo": "0100"}}, {"type": "Feature", "geometry": {"type": "Point", "coordinates": [0.0848, 48.4328]}, "properties": {"type": "archive", "num": 1, "layername": "Archive", "mapid": "033-G-17948", "city": "Alen\u00e7on", "instinfo": "0110"}}, {"type": "Feature", "geometry": {"type": "Point", "coordinates": [-3.1663, 51.4667]}, "properties": {"type": "archive", "num": 1, "layername": "Archive", "mapid": "044-G-01797", "city": "Cardiff", "instinfo": "0111"}}, {"type": "Feature", "geometry": {"type": "Point", "coordinates": [0.187, 48.0108]}, "properties": {"type": "archive", "num": 1, "layername": "Archive", "mapid": "033-G-17970", "city": "Le Mans", "instinfo": "0110"}}, {"type": "Feature", "geometry": {"type": "Point", "coordinates": [1.154, 49.0194]}, "properties": {"type": "archive", "num": 1, "layername": "Archive", "mapid": "033-G-18050", "city": "Evreux", "instinfo": "0100"}}, {"type": "Feature", "geometry": {"type": "Point", "coordinates": [-3.0287, 51.6516]}, "properties": {"type": "archive", "num": 1, "layername": "Archive", "mapid": "044-G-01816", "city": "Cwmbr\u00e2n", "instinfo": "0100"}}, {"type": "Feature", "geometry": {"type": "Point", "coordinates": [1.0898, 49.4385]}, "properties": {"type": "archive", "num": 1, "layername": "Archive", "mapid": "033-G-18185", "city": "Rouen", "instinfo": "0111"}}, {"type": "Feature", "geometry": {"type": "Point", "coordinates": [2.0866, 49.4356]}, "properties": {"type": "archive", "num": 1, "layername": "Archive", "mapid": "033-G-18234", "city": "Beauvais", "instinfo": "0110"}}, {"type": "Feature", "geometry": {"type": "Point", "coordinates": [2.7714, 50.2913]}, "properties": {"type": "archive", "num": 1, "layername": "Archive", "mapid": "033-G-18352", "city": "Arras", "instinfo": "0100"}}, {"type": "Feature", "geometry": {"type": "Point", "coordinates": [2.2916, 49.8906]}, "properties": {"type": "archive", "num": 1, "layername": "Archive", "mapid": "033-G-18378", "city": "Amiens", "instinfo": "0110"}}, {"type": "Feature", "geometry": {"type": "Point", "coordinates": [1.9181, 47.9031]}, "properties": {"type": "archive", "num": 1, "layername": "Archive", "mapid": "033-G-18443", "city": "Orl\u00e9ans", "instinfo": "0110"}}, {"type": "Feature", "geometry": {"type": "Point", "coordinates": [1.4829, 48.4494]}, "properties": {"type": "archive", "num": 1, "layername": "Archive", "mapid": "033-G-18452", "city": "Chartres", "instinfo": "0100"}}, {"type": "Feature", "geometry": {"type": "Point", "coordinates": [2.445, 48.6282]}, "properties": {"type": "archive", "num": 1, "layername": "Archive", "mapid": "033-G-18541", "city": "\u00c9vry", "instinfo": "0100"}}, {"type": "Feature", "geometry": {"type": "Point", "coordinates": [2.1286, 48.8153]}, "properties": {"type": "archive", "num": 1, "layername": "Archive", "mapid": "033-G-18548", "city": "Versailles", "instinfo": "0111"}}, {"type": "Feature", "geometry": {"type": "Point", "coordinates": [2.4609, 48.7936]}, "properties": {"type": "archive", "num": 1, "layername": "Archive", "mapid": "033-G-18580", "city": "Cr\u00e9teil", "instinfo": "0100"}}, {"type": "Feature", "geometry": {"type": "Point", "coordinates": [2.3685, 48.9385]}, "properties": {"type": "archive", "num": 1, "layername": "Archive", "mapid": "033-G-18626", "city": "Saint-Denis", "instinfo": "0100"}}, {"type": "Feature", "geometry": {"type": "Point", "coordinates": [2.659, 48.5384]}, "properties": {"type": "archive", "num": 1, "layername": "Archive", "mapid": "033-G-18664", "city": "Melun", "instinfo": "0110"}}, {"type": "Feature", "geometry": {"type": "Point", "coordinates": [2.7011, 48.4052]}, "properties": {"type": "archive", "num": 1, "layername": "Archive", "mapid": "033-G-18672", "city": "Fontainebleau", "instinfo": "0100"}}, {"type": "Feature", "geometry": {"type": "Point", "coordinates": [4.0809, 48.288]}, "properties": {"type": "archive", "num": 1, "layername": "Archive", "mapid": "033-G-18869", "city": "Troyes", "instinfo": "0111"}}, {"type": "Feature", "geometry": {"type": "Point", "coordinates": [3.388, 50.6054]}, "properties": {"type": "archive", "num": 1, "layername": "Archive", "mapid": "032-G-19011", "city": "Tournai", "instinfo": "0110"}}, {"type": "Feature", "geometry": {"type": "Point", "coordinates": [3.9514, 50.4542]}, "properties": {"type": "archive", "num": 1, "layername": "Archive", "mapid": "032-G-19079", "city": "Mons", "instinfo": "0110"}}, {"type": "Feature", "geometry": {"type": "Point", "coordinates": [3.6225, 49.5656]}, "properties": {"type": "archive", "num": 1, "layername": "Archive", "mapid": "033-G-19139", "city": "Laon", "instinfo": "0110"}}, {"type": "Feature", "geometry": {"type": "Point", "coordinates": [4.7181, 49.758]}, "properties": {"type": "archive", "num": 1, "layername": "Archive", "mapid": "033-G-19193", "city": "Charleville-M\u00e9zi\u00e8res", "instinfo": "0110"}}, {"type": "Feature", "geometry": {"type": "Point", "coordinates": [4.8675, 50.4693]}, "properties": {"type": "archive", "num": 1, "layername": "Archive", "mapid": "032-G-19274", "city": "Namur", "instinfo": "0101"}}, {"type": "Feature", "geometry": {"type": "Point", "coordinates": [5.2388, 50.5196]}, "properties": {"type": "archive", "num": 1, "layername": "Archive", "mapid": "032-G-19340", "city": "Huy", "instinfo": "0100"}}, {"type": "Feature", "geometry": {"type": "Point", "coordinates": [5.5126, 50.6101]}, "properties": {"type": "archive", "num": 1, "layername": "Archive", "mapid": "032-G-19362", "city": "Seraing", "instinfo": "0100"}}, {"type": "Feature", "geometry": {"type": "Point", "coordinates": [5.3728, 50.0262]}, "properties": {"type": "archive", "num": 1, "layername": "Archive", "mapid": "032-G-19379", "city": "Saint-Hubert", "instinfo": "0100"}}, {"type": "Feature", "geometry": {"type": "Point", "coordinates": [4.3688, 48.9513]}, "properties": {"type": "archive", "num": 1, "layername": "Archive", "mapid": "033-G-19510", "city": "Ch\u00e2lons-en-Champagne", "instinfo": "0110"}}, {"type": "Feature", "geometry": {"type": "Point", "coordinates": [5.1636, 48.7746]}, "properties": {"type": "archive", "num": 1, "layername": "Archive", "mapid": "033-G-19539", "city": "Bar-le-Duc", "instinfo": "0100"}}, {"type": "Feature", "geometry": {"type": "Point", "coordinates": [5.1403, 48.1092]}, "properties": {"type": "archive", "num": 1, "layername": "Archive", "mapid": "033-G-19565", "city": "Chaumont", "instinfo": "0100"}}, {"type": "Feature", "geometry": {"type": "Point", "coordinates": [3.0904, 45.7724]}, "properties": {"type": "archive", "num": 1, "layername": "Archive", "mapid": "033-G-19626", "city": "Clermont-Ferrand", "instinfo": "0100"}}, {"type": "Feature", "geometry": {"type": "Point", "coordinates": [3.8818, 45.0452]}, "properties": {"type": "archive", "num": 1, "layername": "Archive", "mapid": "033-G-19770", "city": "Le Puy", "instinfo": "0100"}}, {"type": "Feature", "geometry": {"type": "Point", "coordinates": [3.3328, 46.5657]}, "properties": {"type": "archive", "num": 1, "layername": "Archive", "mapid": "033-G-19795", "city": "Moulins", "instinfo": "0110"}}, {"type": "Feature", "geometry": {"type": "Point", "coordinates": [3.166, 46.9905]}, "properties": {"type": "archive", "num": 1, "layername": "Archive", "mapid": "033-G-19806", "city": "Nevers", "instinfo": "0110"}}, {"type": "Feature", "geometry": {"type": "Point", "coordinates": [3.5634, 47.7955]}, "properties": {"type": "archive", "num": 1, "layername": "Archive", "mapid": "033-G-19869", "city": "Auxerre", "instinfo": "0100"}}, {"type": "Feature", "geometry": {"type": "Point", "coordinates": [5.0434, 47.3283]}, "properties": {"type": "archive", "num": 1, "layername": "Archive", "mapid": "033-G-20096", "city": "Dijon", "instinfo": "1110"}}, {"type": "Feature", "geometry": {"type": "Point", "coordinates": [5.5586, 46.673]}, "properties": {"type": "archive", "num": 1, "layername": "Archive", "mapid": "033-G-20188", "city": "Lons-le-Saunier", "instinfo": "0110"}}, {"type": "Feature", "geometry": {"type": "Point", "coordinates": [4.3871, 45.4387]}, "properties": {"type": "archive", "num": 1, "layername": "Archive", "mapid": "033-G-20198", "city": "Saint-\u00c9tienne", "instinfo": "0100"}}, {"type": "Feature", "geometry": {"type": "Point", "coordinates": [-4.254, 55.8515]}, "properties": {"type": "archive", "num": 1, "layername": "Archive", "mapid": "044-G-02025", "city": "Glasgow", "instinfo": "0100"}}, {"type": "Feature", "geometry": {"type": "Point", "coordinates": [4.8297, 46.308]}, "properties": {"type": "archive", "num": 1, "layername": "Archive", "mapid": "033-G-20250", "city": "M\u00e2con", "instinfo": "0100"}}, {"type": "Feature", "geometry": {"type": "Point", "coordinates": [4.8461, 45.7541]}, "properties": {"type": "archive", "num": 1, "layername": "Archive", "mapid": "033-G-20274", "city": "Lyon", "instinfo": "0111"}}, {"type": "Feature", "geometry": {"type": "Point", "coordinates": [5.2315, 46.2018]}, "properties": {"type": "archive", "num": 1, "layername": "Archive", "mapid": "033-G-20309", "city": "Bourg-en-Bresse", "instinfo": "0110"}}, {"type": "Feature", "geometry": {"type": "Point", "coordinates": [0.518, 51.2738]}, "properties": {"type": "archive", "num": 1, "layername": "Archive", "mapid": "044-G-20479", "city": "Maidstone", "instinfo": "0110"}}, {"type": "Feature", "geometry": {"type": "Point", "coordinates": [0.4746, 51.7297]}, "properties": {"type": "archive", "num": 1, "layername": "Archive", "mapid": "044-G-20597", "city": null, "instinfo": "0100"}}, {"type": "Feature", "geometry": {"type": "Point", "coordinates": [0.1291, 52.2081]}, "properties": {"type": "archive", "num": 1, "layername": "Archive", "mapid": "044-G-20760", "city": "Cambridge", "instinfo": "0110"}}, {"type": "Feature", "geometry": {"type": "Point", "coordinates": [0.716, 52.2442]}, "properties": {"type": "archive", "num": 1, "layername": "Archive", "mapid": "044-G-20814", "city": "Bury Saint Edmunds", "instinfo": "0100"}}, {"type": "Feature", "geometry": {"type": "Point", "coordinates": [1.2987, 52.6298]}, "properties": {"type": "archive", "num": 1, "layername": "Archive", "mapid": "044-G-20826", "city": "Norwich", "instinfo": "0111"}}, {"type": "Feature", "geometry": {"type": "Point", "coordinates": [3.0399, 50.635]}, "properties": {"type": "archive", "num": 1, "layername": "Archive", "mapid": "033-G-21025", "city": "Lille", "instinfo": "0100"}}, {"type": "Feature", "geometry": {"type": "Point", "coordinates": [-3.6101, 55.0708]}, "properties": {"type": "archive", "num": 1, "layername": "Archive", "mapid": "044-G-02105", "city": "Dumfries", "instinfo": "0110"}}, {"type": "Feature", "geometry": {"type": "Point", "coordinates": [3.2297, 51.2099]}, "properties": {"type": "archive", "num": 1, "layername": "Archive", "mapid": "032-G-21097", "city": "Brugge", "instinfo": "0110"}}, {"type": "Feature", "geometry": {"type": "Point", "coordinates": [3.2647, 50.829]}, "properties": {"type": "archive", "num": 1, "layername": "Archive", "mapid": "032-G-21154", "city": "Kortrijk", "instinfo": "0100"}}, {"type": "Feature", "geometry": {"type": "Point", "coordinates": [3.6036, 51.493]}, "properties": {"type": "archive", "num": 1, "layername": "Archive", "mapid": "031-G-21204", "city": "Middelburg", "instinfo": "0110"}}, {"type": "Feature", "geometry": {"type": "Point", "coordinates": [3.597, 50.7504]}, "properties": {"type": "archive", "num": 1, "layername": "Archive", "mapid": "032-G-21243", "city": "Ronse", "instinfo": "0100"}}, {"type": "Feature", "geometry": {"type": "Point", "coordinates": [4.6388, 52.3901]}, "properties": {"type": "archive", "num": 1, "layername": "Archive", "mapid": "031-G-21497", "city": "Haarlem", "instinfo": "0110"}}, {"type": "Feature", "geometry": {"type": "Point", "coordinates": [5.1082, 52.0973]}, "properties": {"type": "archive", "num": 1, "layername": "Archive", "mapid": "031-G-21668", "city": "Utrecht", "instinfo": "0110"}}, {"type": "Feature", "geometry": {"type": "Point", "coordinates": [4.2569, 51.2128]}, "properties": {"type": "archive", "num": 1, "layername": "Archive", "mapid": "032-G-21839", "city": "Beveren", "instinfo": "0100"}}, {"type": "Feature", "geometry": {"type": "Point", "coordinates": [-3.9376, 56.1159]}, "properties": {"type": "archive", "num": 1, "layername": "Archive", "mapid": "044-G-02193", "city": "Stirling", "instinfo": "0100"}}, {"type": "Feature", "geometry": {"type": "Point", "coordinates": [5.3265, 51.6875]}, "properties": {"type": "archive", "num": 1, "layername": "Archive", "mapid": "031-G-22189", "city": "^'s-Hertogenbosch", "instinfo": "0110"}}, {"type": "Feature", "geometry": {"type": "Point", "coordinates": [5.3327, 50.9304]}, "properties": {"type": "archive", "num": 1, "layername": "Archive", "mapid": "032-G-22388", "city": "Hasselt", "instinfo": "0100"}}, {"type": "Feature", "geometry": {"type": "Point", "coordinates": [5.7111, 50.859]}, "properties": {"type": "archive", "num": 1, "layername": "Archive", "mapid": "031-G-22451", "city": "Maastricht", "instinfo": "1110"}}, {"type": "Feature", "geometry": {"type": "Point", "coordinates": [-3.2081, 55.9503]}, "properties": {"type": "archive", "num": 1, "layername": "Archive", "mapid": "044-G-02262", "city": "Edinburgh", "instinfo": "0101"}}, {"type": "Feature", "geometry": {"type": "Point", "coordinates": [5.9126, 51.9835]}, "properties": {"type": "archive", "num": 1, "layername": "Archive", "mapid": "031-G-22720", "city": "Arnhem", "instinfo": "0111"}}, {"type": "Feature", "geometry": {"type": "Point", "coordinates": [-2.9553, 58.9847]}, "properties": {"type": "archive", "num": 1, "layername": "Archive", "mapid": "044-G-00230", "city": "Kirkwall", "instinfo": "0110"}}, {"type": "Feature", "geometry": {"type": "Point", "coordinates": [6.7879, 51.2304]}, "properties": {"type": "archive", "num": 1, "layername": "Archive", "mapid": "049-G-23000", "city": "D\u00fcsseldorf", "instinfo": "1100"}}, {"type": "Feature", "geometry": {"type": "Point", "coordinates": [6.9599, 50.9351]}, "properties": {"type": "archive", "num": 1, "layername": "Archive", "mapid": "049-G-23062", "city": "Cologne", "instinfo": "0111"}}, {"type": "Feature", "geometry": {"type": "Point", "coordinates": [6.095, 52.508]}, "properties": {"type": "archive", "num": 1, "layername": "Archive", "mapid": "031-G-23156", "city": "Zwolle", "instinfo": "0110"}}, {"type": "Feature", "geometry": {"type": "Point", "coordinates": [-2.9294, 54.8948]}, "properties": {"type": "archive", "num": 1, "layername": "Archive", "mapid": "044-G-02323", "city": null, "instinfo": "0100"}}, {"type": "Feature", "geometry": {"type": "Point", "coordinates": [5.7932, 53.1966]}, "properties": {"type": "archive", "num": 1, "layername": "Archive", "mapid": "031-G-23249", "city": "Leeuwarden", "instinfo": "1110"}}, {"type": "Feature", "geometry": {"type": "Point", "coordinates": [6.5564, 52.9962]}, "properties": {"type": "archive", "num": 1, "layername": "Archive", "mapid": "031-G-23304", "city": "Assen", "instinfo": "0110"}}, {"type": "Feature", "geometry": {"type": "Point", "coordinates": [6.5596, 53.2217]}, "properties": {"type": "archive", "num": 1, "layername": "Archive", "mapid": "031-G-23311", "city": "Groningen", "instinfo": "1110"}}, {"type": "Feature", "geometry": {"type": "Point", "coordinates": [8.2081, 53.1412]}, "properties": {"type": "archive", "num": 1, "layername": "Archive", "mapid": "049-G-23621", "city": "Oldenburg", "instinfo": "0110"}}, {"type": "Feature", "geometry": {"type": "Point", "coordinates": [8.0523, 52.2751]}, "properties": {"type": "archive", "num": 1, "layername": "Archive", "mapid": "049-G-23654", "city": "Osnabr\u00fcck", "instinfo": "0100"}}, {"type": "Feature", "geometry": {"type": "Point", "coordinates": [7.185, 50.773]}, "properties": {"type": "archive", "num": 1, "layername": "Archive", "mapid": "049-G-23729", "city": "Sankt Augustin", "instinfo": "0100"}}, {"type": "Feature", "geometry": {"type": "Point", "coordinates": [7.5549, 51.0233]}, "properties": {"type": "archive", "num": 1, "layername": "Archive", "mapid": "049-G-23795", "city": "Gummersbach", "instinfo": "0100"}}, {"type": "Feature", "geometry": {"type": "Point", "coordinates": [7.6293, 51.9641]}, "properties": {"type": "archive", "num": 1, "layername": "Archive", "mapid": "049-G-23959", "city": "M\u00fcnster", "instinfo": "1111"}}, {"type": "Feature", "geometry": {"type": "Point", "coordinates": [7.4845, 53.4721]}, "properties": {"type": "archive", "num": 1, "layername": "Archive", "mapid": "049-G-24226", "city": "Aurich", "instinfo": "0100"}}, {"type": "Feature", "geometry": {"type": "Point", "coordinates": [9.5667, 54.5171]}, "properties": {"type": "archive", "num": 1, "layername": "Archive", "mapid": "049-G-24371", "city": "Schleswig", "instinfo": "0101"}}, {"type": "Feature", "geometry": {"type": "Point", "coordinates": [9.4786, 53.5971]}, "properties": {"type": "archive", "num": 1, "layername": "Archive", "mapid": "049-G-24419", "city": "Stade", "instinfo": "0100"}}, {"type": "Feature", "geometry": {"type": "Point", "coordinates": [9.4219, 55.0485]}, "properties": {"type": "archive", "num": 1, "layername": "Archive", "mapid": "045-G-24621", "city": "\u00c5benr\u00e5", "instinfo": "0110"}}, {"type": "Feature", "geometry": {"type": "Point", "coordinates": [9.997, 53.5469]}, "properties": {"type": "archive", "num": 1, "layername": "Archive", "mapid": "049-G-24742", "city": "Hamburg", "instinfo": "0111"}}, {"type": "Feature", "geometry": {"type": "Point", "coordinates": [8.7732, 50.8079]}, "properties": {"type": "archive", "num": 1, "layername": "Archive", "mapid": "049-G-24947", "city": "Marburg", "instinfo": "0110"}}, {"type": "Feature", "geometry": {"type": "Point", "coordinates": [8.8772, 51.9416]}, "properties": {"type": "archive", "num": 1, "layername": "Archive", "mapid": "049-G-25036", "city": "Detmold", "instinfo": "0101"}}, {"type": "Feature", "geometry": {"type": "Point", "coordinates": [-2.6964, 53.7624]}, "properties": {"type": "archive", "num": 1, "layername": "Archive", "mapid": "044-G-02504", "city": "Preston", "instinfo": "0100"}}, {"type": "Feature", "geometry": {"type": "Point", "coordinates": [9.0504, 52.2606]}, "properties": {"type": "archive", "num": 1, "layername": "Archive", "mapid": "049-G-25304", "city": "B\u00fcckeburg", "instinfo": "0100"}}, {"type": "Feature", "geometry": {"type": "Point", "coordinates": [8.8033, 53.0854]}, "properties": {"type": "archive", "num": 1, "layername": "Archive", "mapid": "049-G-25383", "city": "Bremen", "instinfo": "0111"}}, {"type": "Feature", "geometry": {"type": "Point", "coordinates": [9.722, 52.3782]}, "properties": {"type": "archive", "num": 1, "layername": "Archive", "mapid": "049-G-25543", "city": "Hannover", "instinfo": "0111"}}, {"type": "Feature", "geometry": {"type": "Point", "coordinates": [10.5417, 52.1672]}, "properties": {"type": "archive", "num": 1, "layername": "Archive", "mapid": "049-G-25657", "city": "Wolfenb\u00fcttel", "instinfo": "0110"}}, {"type": "Feature", "geometry": {"type": "Point", "coordinates": [10.7082, 50.952]}, "properties": {"type": "archive", "num": 1, "layername": "Archive", "mapid": "049-G-26137", "city": "Gotha", "instinfo": "0100"}}, {"type": "Feature", "geometry": {"type": "Point", "coordinates": [5.7259, 45.1878]}, "properties": {"type": "archive", "num": 1, "layername": "Archive", "mapid": "033-G-26234", "city": "Grenoble", "instinfo": "1111"}}, {"type": "Feature", "geometry": {"type": "Point", "coordinates": [5.9193, 45.5683]}, "properties": {"type": "archive", "num": 1, "layername": "Archive", "mapid": "033-G-26267", "city": "Chamb\u00e9ry", "instinfo": "0111"}}, {"type": "Feature", "geometry": {"type": "Point", "coordinates": [6.1404, 46.2034]}, "properties": {"type": "archive", "num": 1, "layername": "Archive", "mapid": "041-G-26330", "city": "Geneva", "instinfo": "0111"}}, {"type": "Feature", "geometry": {"type": "Point", "coordinates": [6.1258, 45.9057]}, "properties": {"type": "archive", "num": 1, "layername": "Archive", "mapid": "033-G-26383", "city": "Annecy", "instinfo": "0110"}}, {"type": "Feature", "geometry": {"type": "Point", "coordinates": [6.0239, 47.2452]}, "properties": {"type": "archive", "num": 1, "layername": "Archive", "mapid": "033-G-26567", "city": "Besan\u00e7on", "instinfo": "1110"}}, {"type": "Feature", "geometry": {"type": "Point", "coordinates": [6.1522, 47.6234]}, "properties": {"type": "archive", "num": 1, "layername": "Archive", "mapid": "033-G-26585", "city": "Vesoul", "instinfo": "0100"}}, {"type": "Feature", "geometry": {"type": "Point", "coordinates": [6.8577, 47.6408]}, "properties": {"type": "archive", "num": 1, "layername": "Archive", "mapid": "033-G-26626", "city": "Belfort", "instinfo": "0100"}}, {"type": "Feature", "geometry": {"type": "Point", "coordinates": [6.624, 46.5216]}, "properties": {"type": "archive", "num": 1, "layername": "Archive", "mapid": "041-G-26677", "city": "Lausanne", "instinfo": "0111"}}, {"type": "Feature", "geometry": {"type": "Point", "coordinates": [6.9324, 46.9915]}, "properties": {"type": "archive", "num": 1, "layername": "Archive", "mapid": "041-G-26718", "city": "Neuch\u00e2tel", "instinfo": "0111"}}, {"type": "Feature", "geometry": {"type": "Point", "coordinates": [7.1623, 46.8063]}, "properties": {"type": "archive", "num": 1, "layername": "Archive", "mapid": "041-G-26779", "city": "Fribourg", "instinfo": "0111"}}, {"type": "Feature", "geometry": {"type": "Point", "coordinates": [7.3477, 47.3637]}, "properties": {"type": "archive", "num": 1, "layername": "Archive", "mapid": "041-G-26890", "city": "Del\u00e9mont", "instinfo": "0101"}}, {"type": "Feature", "geometry": {"type": "Point", "coordinates": [7.5358, 47.2061]}, "properties": {"type": "archive", "num": 1, "layername": "Archive", "mapid": "041-G-26950", "city": "Solothurn", "instinfo": "0100"}}, {"type": "Feature", "geometry": {"type": "Point", "coordinates": [8.046, 47.3912]}, "properties": {"type": "archive", "num": 1, "layername": "Archive", "mapid": "041-G-26995", "city": "Aarau", "instinfo": "0100"}}, {"type": "Feature", "geometry": {"type": "Point", "coordinates": [7.7427, 47.4813]}, "properties": {"type": "archive", "num": 1, "layername": "Archive", "mapid": "041-G-27021", "city": "Liestal", "instinfo": "0100"}}, {"type": "Feature", "geometry": {"type": "Point", "coordinates": [8.3036, 47.0476]}, "properties": {"type": "archive", "num": 1, "layername": "Archive", "mapid": "041-G-27122", "city": "Lucerne", "instinfo": "0110"}}, {"type": "Feature", "geometry": {"type": "Point", "coordinates": [7.6785, 45.0613]}, "properties": {"type": "archive", "num": 1, "layername": "Archive", "mapid": "039-G-27165", "city": "Turin", "instinfo": "1111"}}, {"type": "Feature", "geometry": {"type": "Point", "coordinates": [7.3646, 46.2293]}, "properties": {"type": "archive", "num": 1, "layername": "Archive", "mapid": "041-G-27222", "city": "Sion", "instinfo": "0101"}}, {"type": "Feature", "geometry": {"type": "Point", "coordinates": [8.0556, 45.5649]}, "properties": {"type": "archive", "num": 1, "layername": "Archive", "mapid": "039-G-27275", "city": "Biella", "instinfo": "0100"}}, {"type": "Feature", "geometry": {"type": "Point", "coordinates": [8.415, 45.3222]}, "properties": {"type": "archive", "num": 1, "layername": "Archive", "mapid": "039-G-27301", "city": "Vercelli", "instinfo": "0100"}}, {"type": "Feature", "geometry": {"type": "Point", "coordinates": [6.1835, 49.117]}, "properties": {"type": "archive", "num": 1, "layername": "Archive", "mapid": "033-G-27350", "city": "Metz", "instinfo": "0110"}}, {"type": "Feature", "geometry": {"type": "Point", "coordinates": [6.1811, 48.6926]}, "properties": {"type": "archive", "num": 1, "layername": "Archive", "mapid": "033-G-27377", "city": "Nancy", "instinfo": "1111"}}, {"type": "Feature", "geometry": {"type": "Point", "coordinates": [6.452, 48.1761]}, "properties": {"type": "archive", "num": 1, "layername": "Archive", "mapid": "033-G-27447", "city": "Epinal", "instinfo": "0110"}}, {"type": "Feature", "geometry": {"type": "Point", "coordinates": [5.8125, 49.6843]}, "properties": {"type": "archive", "num": 1, "layername": "Archive", "mapid": "032-G-27507", "city": "Arlon", "instinfo": "0100"}}, {"type": "Feature", "geometry": {"type": "Point", "coordinates": [6.1259, 49.6107]}, "properties": {"type": "archive", "num": 1, "layername": "Archive", "mapid": "352-G-27521", "city": "Luxembourg", "instinfo": "1111"}}, {"type": "Feature", "geometry": {"type": "Point", "coordinates": [-1.5748, 54.7787]}, "properties": {"type": "archive", "num": 1, "layername": "Archive", "mapid": "044-G-02764", "city": "Durham", "instinfo": "0100"}}, {"type": "Feature", "geometry": {"type": "Point", "coordinates": [6.9949, 49.2346]}, "properties": {"type": "archive", "num": 1, "layername": "Archive", "mapid": "049-G-27879", "city": "Saarbr\u00fccken", "instinfo": "0110"}}, {"type": "Feature", "geometry": {"type": "Point", "coordinates": [8.2423, 50.0771]}, "properties": {"type": "archive", "num": 1, "layername": "Archive", "mapid": "049-G-28127", "city": "Wiesbaden", "instinfo": "0101"}}, {"type": "Feature", "geometry": {"type": "Point", "coordinates": [8.4286, 49.315]}, "properties": {"type": "archive", "num": 1, "layername": "Archive", "mapid": "049-G-28215", "city": "Speyer", "instinfo": "0111"}}, {"type": "Feature", "geometry": {"type": "Point", "coordinates": [7.3604, 48.0826]}, "properties": {"type": "archive", "num": 1, "layername": "Archive", "mapid": "033-G-28224", "city": "Colmar", "instinfo": "0110"}}, {"type": "Feature", "geometry": {"type": "Point", "coordinates": [7.7308, 48.5791]}, "properties": {"type": "archive", "num": 1, "layername": "Archive", "mapid": "033-G-28277", "city": "Strasbourg", "instinfo": "1111"}}, {"type": "Feature", "geometry": {"type": "Point", "coordinates": [8.3866, 49.0104]}, "properties": {"type": "archive", "num": 1, "layername": "Archive", "mapid": "049-G-28316", "city": "Karlsruhe", "instinfo": "0101"}}, {"type": "Feature", "geometry": {"type": "Point", "coordinates": [9.1939, 48.8936]}, "properties": {"type": "archive", "num": 1, "layername": "Archive", "mapid": "049-G-28590", "city": "Ludwigsburg", "instinfo": "0100"}}, {"type": "Feature", "geometry": {"type": "Point", "coordinates": [9.2146, 48.0903]}, "properties": {"type": "archive", "num": 1, "layername": "Archive", "mapid": "049-G-28646", "city": "Sigmaringen", "instinfo": "0110"}}, {"type": "Feature", "geometry": {"type": "Point", "coordinates": [8.6524, 49.8729]}, "properties": {"type": "archive", "num": 1, "layername": "Archive", "mapid": "049-G-28753", "city": "Darmstadt", "instinfo": "0111"}}, {"type": "Feature", "geometry": {"type": "Point", "coordinates": [9.518, 49.759]}, "properties": {"type": "archive", "num": 1, "layername": "Archive", "mapid": "049-G-28998", "city": "Wertheim", "instinfo": "0100"}}, {"type": "Feature", "geometry": {"type": "Point", "coordinates": [9.9353, 49.795]}, "properties": {"type": "archive", "num": 1, "layername": "Archive", "mapid": "049-G-29036", "city": "W\u00fcrzburg", "instinfo": "0110"}}, {"type": "Feature", "geometry": {"type": "Point", "coordinates": [10.42, 50.571]}, "properties": {"type": "archive", "num": 1, "layername": "Archive", "mapid": "049-G-29126", "city": "Meiningen", "instinfo": "0100"}}, {"type": "Feature", "geometry": {"type": "Point", "coordinates": [10.96, 50.2593]}, "properties": {"type": "archive", "num": 1, "layername": "Archive", "mapid": "049-G-29214", "city": "Coburg", "instinfo": "0100"}}, {"type": "Feature", "geometry": {"type": "Point", "coordinates": [10.8871, 49.8926]}, "properties": {"type": "archive", "num": 1, "layername": "Archive", "mapid": "049-G-29246", "city": "Bamberg", "instinfo": "0100"}}, {"type": "Feature", "geometry": {"type": "Point", "coordinates": [11.0804, 49.4468]}, "properties": {"type": "archive", "num": 1, "layername": "Archive", "mapid": "049-G-29290", "city": "N\u00fcrnberg", "instinfo": "0111"}}, {"type": "Feature", "geometry": {"type": "Point", "coordinates": [11.1801, 48.7342]}, "properties": {"type": "archive", "num": 1, "layername": "Archive", "mapid": "049-G-29477", "city": "Neuburg an der Donau", "instinfo": "0100"}}, {"type": "Feature", "geometry": {"type": "Point", "coordinates": [8.6222, 45.4486]}, "properties": {"type": "archive", "num": 1, "layername": "Archive", "mapid": "039-G-29534", "city": "Novara", "instinfo": "0100"}}, {"type": "Feature", "geometry": {"type": "Point", "coordinates": [9.0169, 46.1891]}, "properties": {"type": "archive", "num": 1, "layername": "Archive", "mapid": "041-G-29613", "city": "Bellinzona", "instinfo": "0100"}}, {"type": "Feature", "geometry": {"type": "Point", "coordinates": [8.8289, 45.8169]}, "properties": {"type": "archive", "num": 1, "layername": "Archive", "mapid": "039-G-29626", "city": "Varese", "instinfo": "0100"}}, {"type": "Feature", "geometry": {"type": "Point", "coordinates": [9.0857, 45.7975]}, "properties": {"type": "archive", "num": 1, "layername": "Archive", "mapid": "039-G-29648", "city": "Como", "instinfo": "0100"}}, {"type": "Feature", "geometry": {"type": "Point", "coordinates": [9.1642, 45.1901]}, "properties": {"type": "archive", "num": 1, "layername": "Archive", "mapid": "039-G-29728", "city": "Pavia", "instinfo": "0101"}}, {"type": "Feature", "geometry": {"type": "Point", "coordinates": [9.1696, 45.4752]}, "properties": {"type": "archive", "num": 1, "layername": "Archive", "mapid": "039-G-29741", "city": "Milan", "instinfo": "0111"}}, {"type": "Feature", "geometry": {"type": "Point", "coordinates": [9.6665, 45.6869]}, "properties": {"type": "archive", "num": 1, "layername": "Archive", "mapid": "039-G-29767", "city": "Bergamo", "instinfo": "0100"}}, {"type": "Feature", "geometry": {"type": "Point", "coordinates": [9.6937, 45.0503]}, "properties": {"type": "archive", "num": 1, "layername": "Archive", "mapid": "039-G-29796", "city": "Piacenza", "instinfo": "0100"}}, {"type": "Feature", "geometry": {"type": "Point", "coordinates": [8.6547, 47.022]}, "properties": {"type": "archive", "num": 1, "layername": "Archive", "mapid": "041-G-29831", "city": "Schwyz", "instinfo": "0101"}}, {"type": "Feature", "geometry": {"type": "Point", "coordinates": [8.5153, 47.1662]}, "properties": {"type": "archive", "num": 1, "layername": "Archive", "mapid": "041-G-29842", "city": "Zug", "instinfo": "0110"}}, {"type": "Feature", "geometry": {"type": "Point", "coordinates": [8.6397, 47.6967]}, "properties": {"type": "archive", "num": 1, "layername": "Archive", "mapid": "041-G-29894", "city": "Schaffhausen", "instinfo": "0110"}}, {"type": "Feature", "geometry": {"type": "Point", "coordinates": [8.8971, 47.5569]}, "properties": {"type": "archive", "num": 1, "layername": "Archive", "mapid": "041-G-29921", "city": "Frauenfeld", "instinfo": "0111"}}, {"type": "Feature", "geometry": {"type": "Point", "coordinates": [9.2785, 47.3879]}, "properties": {"type": "archive", "num": 1, "layername": "Archive", "mapid": "041-G-29965", "city": "Herisau", "instinfo": "0101"}}, {"type": "Feature", "geometry": {"type": "Point", "coordinates": [9.3805, 47.4271]}, "properties": {"type": "archive", "num": 1, "layername": "Archive", "mapid": "041-G-29977", "city": "Sankt Gallen", "instinfo": "0111"}}, {"type": "Feature", "geometry": {"type": "Point", "coordinates": [9.7431, 47.5033]}, "properties": {"type": "archive", "num": 1, "layername": "Archive", "mapid": "043-G-30044", "city": "Bregenz", "instinfo": "0111"}}, {"type": "Feature", "geometry": {"type": "Point", "coordinates": [9.5321, 46.8519]}, "properties": {"type": "archive", "num": 1, "layername": "Archive", "mapid": "041-G-30114", "city": "Chur", "instinfo": "0101"}}, {"type": "Feature", "geometry": {"type": "Point", "coordinates": [10.0234, 45.1334]}, "properties": {"type": "archive", "num": 1, "layername": "Archive", "mapid": "039-G-30348", "city": "Cremona", "instinfo": "0100"}}, {"type": "Feature", "geometry": {"type": "Point", "coordinates": [10.2122, 45.542]}, "properties": {"type": "archive", "num": 1, "layername": "Archive", "mapid": "039-G-30360", "city": "Brescia", "instinfo": "0101"}}, {"type": "Feature", "geometry": {"type": "Point", "coordinates": [9.864, 46.1705]}, "properties": {"type": "archive", "num": 1, "layername": "Archive", "mapid": "039-G-30382", "city": "Sondrio", "instinfo": "0100"}}, {"type": "Feature", "geometry": {"type": "Point", "coordinates": [11.1273, 46.07]}, "properties": {"type": "archive", "num": 1, "layername": "Archive", "mapid": "039-G-30424", "city": "Trento", "instinfo": "0101"}}, {"type": "Feature", "geometry": {"type": "Point", "coordinates": [10.7905, 45.1529]}, "properties": {"type": "archive", "num": 1, "layername": "Archive", "mapid": "039-G-30468", "city": "Mantua", "instinfo": "0100"}}, {"type": "Feature", "geometry": {"type": "Point", "coordinates": [-3.4491, 56.3946]}, "properties": {"type": "archive", "num": 1, "layername": "Archive", "mapid": "044-G-00305", "city": "Perth", "instinfo": "0110"}}, {"type": "Feature", "geometry": {"type": "Point", "coordinates": [10.9939, 45.4371]}, "properties": {"type": "archive", "num": 1, "layername": "Archive", "mapid": "039-G-30509", "city": "Verona", "instinfo": "0100"}}, {"type": "Feature", "geometry": {"type": "Point", "coordinates": [5.3167, 60.3912]}, "properties": {"type": "archive", "num": 1, "layername": "Archive", "mapid": "047-G-30561", "city": "Bergen", "instinfo": "0101"}}, {"type": "Feature", "geometry": {"type": "Point", "coordinates": [10.3943, 63.4274]}, "properties": {"type": "archive", "num": 1, "layername": "Archive", "mapid": "047-G-30817", "city": "Trondheim", "instinfo": "1100"}}, {"type": "Feature", "geometry": {"type": "Point", "coordinates": [5.7162, 58.9618]}, "properties": {"type": "archive", "num": 1, "layername": "Archive", "mapid": "047-G-30926", "city": "Stavanger", "instinfo": "0100"}}, {"type": "Feature", "geometry": {"type": "Point", "coordinates": [-1.6231, 54.9708]}, "properties": {"type": "archive", "num": 1, "layername": "Archive", "mapid": "044-G-03097", "city": "Newcastle upon Tyne", "instinfo": "0110"}}, {"type": "Feature", "geometry": {"type": "Point", "coordinates": [7.992, 58.1482]}, "properties": {"type": "archive", "num": 1, "layername": "Archive", "mapid": "047-G-31012", "city": "Kristiansand", "instinfo": "0100"}}, {"type": "Feature", "geometry": {"type": "Point", "coordinates": [11.0812, 60.7967]}, "properties": {"type": "archive", "num": 1, "layername": "Archive", "mapid": "047-G-31654", "city": "Hamar", "instinfo": "0100"}}, {"type": "Feature", "geometry": {"type": "Point", "coordinates": [9.3925, 56.4478]}, "properties": {"type": "archive", "num": 1, "layername": "Archive", "mapid": "045-G-31908", "city": "Viborg", "instinfo": "0100"}}, {"type": "Feature", "geometry": {"type": "Point", "coordinates": [11.9807, 57.7157]}, "properties": {"type": "archive", "num": 1, "layername": "Archive", "mapid": "046-G-32126", "city": "G\u00f6teborg", "instinfo": "0100"}}, {"type": "Feature", "geometry": {"type": "Point", "coordinates": [14.8934, 58.4458]}, "properties": {"type": "archive", "num": 1, "layername": "Archive", "mapid": "046-G-32927", "city": null, "instinfo": "0100"}}, {"type": "Feature", "geometry": {"type": "Point", "coordinates": [-0.4317, 53.844]}, "properties": {"type": "archive", "num": 1, "layername": "Archive", "mapid": "044-G-03327", "city": null, "instinfo": "0100"}}, {"type": "Feature", "geometry": {"type": "Point", "coordinates": [14.6404, 63.1806]}, "properties": {"type": "archive", "num": 1, "layername": "Archive", "mapid": "046-G-33598", "city": "\u00c3\u2013stersund", "instinfo": "0101"}}, {"type": "Feature", "geometry": {"type": "Point", "coordinates": [17.9284, 62.634]}, "properties": {"type": "archive", "num": 1, "layername": "Archive", "mapid": "046-G-33791", "city": "H\u00e4rn\u00f6sand", "instinfo": "0100"}}, {"type": "Feature", "geometry": {"type": "Point", "coordinates": [21.6225, 63.0958]}, "properties": {"type": "archive", "num": 1, "layername": "Archive", "mapid": "358-G-34038", "city": "Vaasa", "instinfo": "0100"}}, {"type": "Feature", "geometry": {"type": "Point", "coordinates": [-1.1563, 60.1578]}, "properties": {"type": "archive", "num": 1, "layername": "Archive", "mapid": "044-G-00341", "city": "Lerwick", "instinfo": "0100"}}, {"type": "Feature", "geometry": {"type": "Point", "coordinates": [-2.1915, 51.3245]}, "properties": {"type": "archive", "num": 1, "layername": "Archive", "mapid": "044-G-03411", "city": null, "instinfo": "0100"}}, {"type": "Feature", "geometry": {"type": "Point", "coordinates": [18.2917, 57.6344]}, "properties": {"type": "archive", "num": 1, "layername": "Archive", "mapid": "046-G-34112", "city": "Visby", "instinfo": "0100"}}, {"type": "Feature", "geometry": {"type": "Point", "coordinates": [19.9494, 60.1099]}, "properties": {"type": "archive", "num": 1, "layername": "Archive", "mapid": "358-G-34319", "city": null, "instinfo": "0101"}}, {"type": "Feature", "geometry": {"type": "Point", "coordinates": [-2.4411, 50.7115]}, "properties": {"type": "archive", "num": 1, "layername": "Archive", "mapid": "044-G-03432", "city": "Dorchester", "instinfo": "0110"}}, {"type": "Feature", "geometry": {"type": "Point", "coordinates": [22.2794, 60.4507]}, "properties": {"type": "archive", "num": 1, "layername": "Archive", "mapid": "358-G-34407", "city": "Turku", "instinfo": "0101"}}, {"type": "Feature", "geometry": {"type": "Point", "coordinates": [11.5378, 45.5455]}, "properties": {"type": "archive", "num": 1, "layername": "Archive", "mapid": "039-G-34519", "city": "Vicenza", "instinfo": "0100"}}, {"type": "Feature", "geometry": {"type": "Point", "coordinates": [11.8754, 45.4171]}, "properties": {"type": "archive", "num": 1, "layername": "Archive", "mapid": "039-G-34563", "city": "Padua", "instinfo": "0100"}}, {"type": "Feature", "geometry": {"type": "Point", "coordinates": [11.783, 45.0705]}, "properties": {"type": "archive", "num": 1, "layername": "Archive", "mapid": "039-G-34575", "city": "Rovigo", "instinfo": "0100"}}, {"type": "Feature", "geometry": {"type": "Point", "coordinates": [12.2218, 46.145]}, "properties": {"type": "archive", "num": 1, "layername": "Archive", "mapid": "039-G-34629", "city": "Belluno", "instinfo": "0100"}}, {"type": "Feature", "geometry": {"type": "Point", "coordinates": [12.6547, 45.9619]}, "properties": {"type": "archive", "num": 1, "layername": "Archive", "mapid": "039-G-34645", "city": "Pordenone", "instinfo": "0100"}}, {"type": "Feature", "geometry": {"type": "Point", "coordinates": [12.2458, 45.6647]}, "properties": {"type": "archive", "num": 1, "layername": "Archive", "mapid": "039-G-34683", "city": "Treviso", "instinfo": "0100"}}, {"type": "Feature", "geometry": {"type": "Point", "coordinates": [12.3248, 45.4393]}, "properties": {"type": "archive", "num": 1, "layername": "Archive", "mapid": "039-G-34688", "city": "Venice", "instinfo": "1101"}}, {"type": "Feature", "geometry": {"type": "Point", "coordinates": [11.34, 46.4935]}, "properties": {"type": "archive", "num": 1, "layername": "Archive", "mapid": "039-G-34706", "city": "Bolzano", "instinfo": "0100"}}, {"type": "Feature", "geometry": {"type": "Point", "coordinates": [11.3936, 47.2661]}, "properties": {"type": "archive", "num": 1, "layername": "Archive", "mapid": "043-G-34737", "city": "Innsbruck", "instinfo": "0101"}}, {"type": "Feature", "geometry": {"type": "Point", "coordinates": [13.0548, 47.8088]}, "properties": {"type": "archive", "num": 1, "layername": "Archive", "mapid": "043-G-35068", "city": "Salzburg", "instinfo": "0111"}}, {"type": "Feature", "geometry": {"type": "Point", "coordinates": [13.2351, 46.0615]}, "properties": {"type": "archive", "num": 1, "layername": "Archive", "mapid": "039-G-35253", "city": "Udine", "instinfo": "1101"}}, {"type": "Feature", "geometry": {"type": "Point", "coordinates": [13.6549, 45.9585]}, "properties": {"type": "archive", "num": 1, "layername": "Archive", "mapid": "386-G-35267", "city": null, "instinfo": "0100"}}, {"type": "Feature", "geometry": {"type": "Point", "coordinates": [13.6181, 45.9454]}, "properties": {"type": "archive", "num": 1, "layername": "Archive", "mapid": "039-G-35268", "city": "Gorizia", "instinfo": "0100"}}, {"type": "Feature", "geometry": {"type": "Point", "coordinates": [13.7325, 45.5435]}, "properties": {"type": "archive", "num": 1, "layername": "Archive", "mapid": "386-G-35326", "city": "Koper", "instinfo": "0100"}}, {"type": "Feature", "geometry": {"type": "Point", "coordinates": [13.7696, 45.6464]}, "properties": {"type": "archive", "num": 1, "layername": "Archive", "mapid": "039-G-35328", "city": "Trieste", "instinfo": "0101"}}, {"type": "Feature", "geometry": {"type": "Point", "coordinates": [13.9375, 45.2405]}, "properties": {"type": "archive", "num": 1, "layername": "Archive", "mapid": "385-G-35359", "city": "Pazin", "instinfo": "0110"}}, {"type": "Feature", "geometry": {"type": "Point", "coordinates": [-2.2478, 51.8573]}, "properties": {"type": "archive", "num": 1, "layername": "Archive", "mapid": "044-G-03540", "city": "Gloucester", "instinfo": "0100"}}, {"type": "Feature", "geometry": {"type": "Point", "coordinates": [12.1585, 48.5386]}, "properties": {"type": "archive", "num": 1, "layername": "Archive", "mapid": "049-G-35521", "city": "Landshut", "instinfo": "0110"}}, {"type": "Feature", "geometry": {"type": "Point", "coordinates": [11.8582, 49.4419]}, "properties": {"type": "archive", "num": 1, "layername": "Archive", "mapid": "049-G-35719", "city": "Amberg", "instinfo": "0100"}}, {"type": "Feature", "geometry": {"type": "Point", "coordinates": [14.2893, 48.3025]}, "properties": {"type": "archive", "num": 1, "layername": "Archive", "mapid": "043-G-36468", "city": "Linz", "instinfo": "1111"}}, {"type": "Feature", "geometry": {"type": "Point", "coordinates": [16.6053, 49.1916]}, "properties": {"type": "archive", "num": 1, "layername": "Archive", "mapid": "420-G-37303", "city": "Brno", "instinfo": "1101"}}, {"type": "Feature", "geometry": {"type": "Point", "coordinates": [-2.7203, 52.056]}, "properties": {"type": "archive", "num": 1, "layername": "Archive", "mapid": "044-G-03732", "city": null, "instinfo": "0101"}}, {"type": "Feature", "geometry": {"type": "Point", "coordinates": [16.5258, 47.8434]}, "properties": {"type": "archive", "num": 1, "layername": "Archive", "mapid": "043-G-37394", "city": "Eisenstadt", "instinfo": "0101"}}, {"type": "Feature", "geometry": {"type": "Point", "coordinates": [14.4385, 45.3334]}, "properties": {"type": "archive", "num": 1, "layername": "Archive", "mapid": "385-G-37442", "city": "Rijeka", "instinfo": "1101"}}, {"type": "Feature", "geometry": {"type": "Point", "coordinates": [14.5052, 46.0535]}, "properties": {"type": "archive", "num": 1, "layername": "Archive", "mapid": "386-G-37529", "city": "Ljubljana", "instinfo": "1111"}}, {"type": "Feature", "geometry": {"type": "Point", "coordinates": [14.3127, 46.6245]}, "properties": {"type": "archive", "num": 1, "layername": "Archive", "mapid": "043-G-37711", "city": "Klagenfurt", "instinfo": "0111"}}, {"type": "Feature", "geometry": {"type": "Point", "coordinates": [-2.7471, 52.7062]}, "properties": {"type": "archive", "num": 1, "layername": "Archive", "mapid": "044-G-03775", "city": "Shrewsbury", "instinfo": "0110"}}, {"type": "Feature", "geometry": {"type": "Point", "coordinates": [15.4226, 47.0629]}, "properties": {"type": "archive", "num": 1, "layername": "Archive", "mapid": "043-G-37954", "city": "Graz", "instinfo": "0111"}}, {"type": "Feature", "geometry": {"type": "Point", "coordinates": [15.6471, 46.5602]}, "properties": {"type": "archive", "num": 1, "layername": "Archive", "mapid": "386-G-37979", "city": "Maribor", "instinfo": "0110"}}, {"type": "Feature", "geometry": {"type": "Point", "coordinates": [16.6202, 47.2288]}, "properties": {"type": "archive", "num": 1, "layername": "Archive", "mapid": "036-G-38096", "city": "Szombathely", "instinfo": "0100"}}, {"type": "Feature", "geometry": {"type": "Point", "coordinates": [16.5921, 47.6818]}, "properties": {"type": "archive", "num": 1, "layername": "Archive", "mapid": "036-G-38111", "city": "Sopron", "instinfo": "0100"}}, {"type": "Feature", "geometry": {"type": "Point", "coordinates": [16.8441, 46.845]}, "properties": {"type": "archive", "num": 1, "layername": "Archive", "mapid": "036-G-38155", "city": "Zalaegerszeg", "instinfo": "0100"}}, {"type": "Feature", "geometry": {"type": "Point", "coordinates": [15.552, 45.4917]}, "properties": {"type": "archive", "num": 1, "layername": "Archive", "mapid": "385-G-38208", "city": null, "instinfo": "0100"}}, {"type": "Feature", "geometry": {"type": "Point", "coordinates": [16.3409, 46.3121]}, "properties": {"type": "archive", "num": 1, "layername": "Archive", "mapid": "385-G-38295", "city": "Vara\u017edin", "instinfo": "0101"}}, {"type": "Feature", "geometry": {"type": "Point", "coordinates": [16.841, 45.9012]}, "properties": {"type": "archive", "num": 1, "layername": "Archive", "mapid": "385-G-38351", "city": null, "instinfo": "0100"}}, {"type": "Feature", "geometry": {"type": "Point", "coordinates": [16.3758, 45.4846]}, "properties": {"type": "archive", "num": 1, "layername": "Archive", "mapid": "385-G-38384", "city": null, "instinfo": "0100"}}, {"type": "Feature", "geometry": {"type": "Point", "coordinates": [11.3431, 50.7202]}, "properties": {"type": "archive", "num": 1, "layername": "Archive", "mapid": "049-G-38413", "city": "Rudolstadt", "instinfo": "0100"}}, {"type": "Feature", "geometry": {"type": "Point", "coordinates": [11.3251, 50.9823]}, "properties": {"type": "archive", "num": 1, "layername": "Archive", "mapid": "049-G-38453", "city": "Weimar", "instinfo": "0101"}}, {"type": "Feature", "geometry": {"type": "Point", "coordinates": [11.9955, 51.35]}, "properties": {"type": "archive", "num": 1, "layername": "Archive", "mapid": "049-G-38604", "city": "Merseburg", "instinfo": "0100"}}, {"type": "Feature", "geometry": {"type": "Point", "coordinates": [12.3762, 51.3477]}, "properties": {"type": "archive", "num": 1, "layername": "Archive", "mapid": "049-G-38685", "city": "Leipzig", "instinfo": "1100"}}, {"type": "Feature", "geometry": {"type": "Point", "coordinates": [12.1981, 50.6548]}, "properties": {"type": "archive", "num": 1, "layername": "Archive", "mapid": "049-G-38740", "city": "Greiz", "instinfo": "0100"}}, {"type": "Feature", "geometry": {"type": "Point", "coordinates": [12.4382, 50.9822]}, "properties": {"type": "archive", "num": 1, "layername": "Archive", "mapid": "049-G-38788", "city": "Altenburg", "instinfo": "0100"}}, {"type": "Feature", "geometry": {"type": "Point", "coordinates": [-2.2228, 52.1928]}, "properties": {"type": "archive", "num": 1, "layername": "Archive", "mapid": "044-G-03890", "city": "Worcester", "instinfo": "0110"}}, {"type": "Feature", "geometry": {"type": "Point", "coordinates": [11.6306, 52.1309]}, "properties": {"type": "archive", "num": 1, "layername": "Archive", "mapid": "049-G-38910", "city": "Magdeburg", "instinfo": "0100"}}, {"type": "Feature", "geometry": {"type": "Point", "coordinates": [13.7325, 51.0515]}, "properties": {"type": "archive", "num": 1, "layername": "Archive", "mapid": "049-G-39679", "city": "Dresden", "instinfo": "0101"}}, {"type": "Feature", "geometry": {"type": "Point", "coordinates": [11.4011, 53.6353]}, "properties": {"type": "archive", "num": 1, "layername": "Archive", "mapid": "049-G-39717", "city": "Schwerin", "instinfo": "0100"}}, {"type": "Feature", "geometry": {"type": "Point", "coordinates": [-21.9614, 64.1467]}, "properties": {"type": "archive", "num": 1, "layername": "Archive", "mapid": "354-G-00004", "city": "Reykjav\u00edk", "instinfo": "1111"}}, {"type": "Feature", "geometry": {"type": "Point", "coordinates": [13.1976, 55.7068]}, "properties": {"type": "archive", "num": 1, "layername": "Archive", "mapid": "046-G-40037", "city": "Lund", "instinfo": "0100"}}, {"type": "Feature", "geometry": {"type": "Point", "coordinates": [13.3829, 54.0924]}, "properties": {"type": "archive", "num": 1, "layername": "Archive", "mapid": "049-G-40219", "city": "Greifswald", "instinfo": "1100"}}, {"type": "Feature", "geometry": {"type": "Point", "coordinates": [16.1954000404274, 54.1903000246103]}, "properties": {"type": "archive", "num": 1, "layername": "Archive", "mapid": "048-G-40428", "city": null, "instinfo": "0100"}}, {"type": "Feature", "geometry": {"type": "Point", "coordinates": [14.546, 53.4242]}, "properties": {"type": "archive", "num": 1, "layername": "Archive", "mapid": "048-G-40891", "city": "Szczecin", "instinfo": "0100"}}, {"type": "Feature", "geometry": {"type": "Point", "coordinates": [16.5809000407864, 51.8452000224262]}, "properties": {"type": "archive", "num": 1, "layername": "Archive", "mapid": "048-G-41286", "city": null, "instinfo": "0100"}}, {"type": "Feature", "geometry": {"type": "Point", "coordinates": [17.0214, 51.1112]}, "properties": {"type": "archive", "num": 1, "layername": "Archive", "mapid": "048-G-41404", "city": "Wroc\u0142aw", "instinfo": "1100"}}, {"type": "Feature", "geometry": {"type": "Point", "coordinates": [18.0774000421802, 51.760100022347]}, "properties": {"type": "archive", "num": 1, "layername": "Archive", "mapid": "048-G-41531", "city": null, "instinfo": "0100"}}, {"type": "Feature", "geometry": {"type": "Point", "coordinates": [17.9319, 50.6738]}, "properties": {"type": "archive", "num": 1, "layername": "Archive", "mapid": "048-G-41589", "city": "Opole", "instinfo": "0100"}}, {"type": "Feature", "geometry": {"type": "Point", "coordinates": [-2.1145, 52.802]}, "properties": {"type": "archive", "num": 1, "layername": "Archive", "mapid": "044-G-04160", "city": "Stafford", "instinfo": "0110"}}, {"type": "Feature", "geometry": {"type": "Point", "coordinates": [16.91, 52.4026]}, "properties": {"type": "archive", "num": 1, "layername": "Archive", "mapid": "048-G-41610", "city": "Pozna\u0144", "instinfo": "1110"}}, {"type": "Feature", "geometry": {"type": "Point", "coordinates": [18.0001, 53.1193]}, "properties": {"type": "archive", "num": 1, "layername": "Archive", "mapid": "048-G-41730", "city": "Bydgoszcz", "instinfo": "0100"}}, {"type": "Feature", "geometry": {"type": "Point", "coordinates": [18.6122, 53.0203]}, "properties": {"type": "archive", "num": 1, "layername": "Archive", "mapid": "048-G-41856", "city": "Toru\u0144", "instinfo": "1110"}}, {"type": "Feature", "geometry": {"type": "Point", "coordinates": [19.4445, 51.7954]}, "properties": {"type": "archive", "num": 1, "layername": "Archive", "mapid": "048-G-42157", "city": "\u0141\u00f3d\u017a", "instinfo": "0100"}}, {"type": "Feature", "geometry": {"type": "Point", "coordinates": [19.1125000431442, 50.8169000214686]}, "properties": {"type": "archive", "num": 1, "layername": "Archive", "mapid": "048-G-42206", "city": "Cz\u0119stochowa", "instinfo": "0100"}}, {"type": "Feature", "geometry": {"type": "Point", "coordinates": [17.0287000412035, 54.4688000248697]}, "properties": {"type": "archive", "num": 1, "layername": "Archive", "mapid": "048-G-42311", "city": "S\u0142upsk", "instinfo": "0100"}}, {"type": "Feature", "geometry": {"type": "Point", "coordinates": [-1.5561, 53.1376]}, "properties": {"type": "archive", "num": 1, "layername": "Archive", "mapid": "044-G-04248", "city": null, "instinfo": "0100"}}, {"type": "Feature", "geometry": {"type": "Point", "coordinates": [18.6465, 54.3543]}, "properties": {"type": "archive", "num": 1, "layername": "Archive", "mapid": "048-G-42530", "city": "Gda\u0144sk", "instinfo": "0101"}}, {"type": "Feature", "geometry": {"type": "Point", "coordinates": [19.0342000430712, 54.037500024468]}, "properties": {"type": "archive", "num": 1, "layername": "Archive", "mapid": "048-G-42559", "city": null, "instinfo": "0100"}}, {"type": "Feature", "geometry": {"type": "Point", "coordinates": [20.5154, 54.7104]}, "properties": {"type": "archive", "num": 1, "layername": "Archive", "mapid": "007-G-42673", "city": "Kaliningrad", "instinfo": "0101"}}, {"type": "Feature", "geometry": {"type": "Point", "coordinates": [20.476000044414, 53.7731000242217]}, "properties": {"type": "archive", "num": 1, "layername": "Archive", "mapid": "048-G-42711", "city": "Olsztyn", "instinfo": "0100"}}, {"type": "Feature", "geometry": {"type": "Point", "coordinates": [19.7011, 51.4081]}, "properties": {"type": "archive", "num": 1, "layername": "Archive", "mapid": "048-G-43060", "city": "Piotrk\u00f3w Trybunalski", "instinfo": "0100"}}, {"type": "Feature", "geometry": {"type": "Point", "coordinates": [20.6297, 50.8726]}, "properties": {"type": "archive", "num": 1, "layername": "Archive", "mapid": "048-G-43191", "city": "Kielce", "instinfo": "0100"}}, {"type": "Feature", "geometry": {"type": "Point", "coordinates": [19.7065000436974, 52.5457000230786]}, "properties": {"type": "archive", "num": 1, "layername": "Archive", "mapid": "048-G-43265", "city": "P\u0142ock", "instinfo": "0100"}}, {"type": "Feature", "geometry": {"type": "Point", "coordinates": [22.272, 52.1666]}, "properties": {"type": "archive", "num": 1, "layername": "Archive", "mapid": "048-G-43711", "city": "Siedlce", "instinfo": "0100"}}, {"type": "Feature", "geometry": {"type": "Point", "coordinates": [21.1468000450388, 51.4028000220142]}, "properties": {"type": "archive", "num": 1, "layername": "Archive", "mapid": "048-G-43797", "city": null, "instinfo": "0100"}}, {"type": "Feature", "geometry": {"type": "Point", "coordinates": [5.3733, 43.2959]}, "properties": {"type": "archive", "num": 1, "layername": "Archive", "mapid": "033-G-10005", "city": "Marseille", "instinfo": "0110"}}, {"type": "Feature", "geometry": {"type": "Point", "coordinates": [18.2344, 46.0741]}, "properties": {"type": "archive", "num": 1, "layername": "Archive", "mapid": "036-G-44075", "city": "P\u00e9cs", "instinfo": "0100"}}, {"type": "Feature", "geometry": {"type": "Point", "coordinates": [18.0195, 45.1669]}, "properties": {"type": "archive", "num": 1, "layername": "Archive", "mapid": "385-G-44167", "city": "Slavonski Brod", "instinfo": "1101"}}, {"type": "Feature", "geometry": {"type": "Point", "coordinates": [17.6345, 47.6833]}, "properties": {"type": "archive", "num": 1, "layername": "Archive", "mapid": "036-G-44291", "city": "Gy\u0151r", "instinfo": "0100"}}, {"type": "Feature", "geometry": {"type": "Point", "coordinates": [17.9071, 47.0918]}, "properties": {"type": "archive", "num": 1, "layername": "Archive", "mapid": "036-G-44353", "city": "Veszpr\u00e9m", "instinfo": "0100"}}, {"type": "Feature", "geometry": {"type": "Point", "coordinates": [18.4218, 47.1911]}, "properties": {"type": "archive", "num": 1, "layername": "Archive", "mapid": "036-G-44411", "city": "Sz\u00e9kesfeh\u00e9rv\u00e1r", "instinfo": "0100"}}, {"type": "Feature", "geometry": {"type": "Point", "coordinates": [18.7398, 47.7856]}, "properties": {"type": "archive", "num": 1, "layername": "Archive", "mapid": "036-G-44443", "city": "Esztergom", "instinfo": "0100"}}, {"type": "Feature", "geometry": {"type": "Point", "coordinates": [19.6838, 46.9022]}, "properties": {"type": "archive", "num": 1, "layername": "Archive", "mapid": "036-G-44549", "city": "Kecskem\u00e9t", "instinfo": "0100"}}, {"type": "Feature", "geometry": {"type": "Point", "coordinates": [18.6764, 45.5571]}, "properties": {"type": "archive", "num": 1, "layername": "Archive", "mapid": "385-G-44584", "city": null, "instinfo": "0101"}}, {"type": "Feature", "geometry": {"type": "Point", "coordinates": [18.7015, 46.3484]}, "properties": {"type": "archive", "num": 1, "layername": "Archive", "mapid": "036-G-44622", "city": "Szeksz\u00e1rd", "instinfo": "0100"}}, {"type": "Feature", "geometry": {"type": "Point", "coordinates": [-1.5893, 52.2834]}, "properties": {"type": "archive", "num": 1, "layername": "Archive", "mapid": "044-G-04465", "city": "Warwick", "instinfo": "0100"}}, {"type": "Feature", "geometry": {"type": "Point", "coordinates": [18.0849, 48.3056]}, "properties": {"type": "archive", "num": 1, "layername": "Archive", "mapid": "421-G-44945", "city": "Nitra", "instinfo": "0100"}}, {"type": "Feature", "geometry": {"type": "Point", "coordinates": [17.9018, 49.9346]}, "properties": {"type": "archive", "num": 1, "layername": "Archive", "mapid": "420-G-45083", "city": "Opava", "instinfo": "1100"}}, {"type": "Feature", "geometry": {"type": "Point", "coordinates": [18.5653, 49.2236]}, "properties": {"type": "archive", "num": 1, "layername": "Archive", "mapid": "421-G-45186", "city": "Byt\u010da", "instinfo": "0100"}}, {"type": "Feature", "geometry": {"type": "Point", "coordinates": [-1.1306, 52.6364]}, "properties": {"type": "archive", "num": 1, "layername": "Archive", "mapid": "044-G-04525", "city": "Leicester", "instinfo": "0110"}}, {"type": "Feature", "geometry": {"type": "Point", "coordinates": [19.0276, 50.2625]}, "properties": {"type": "archive", "num": 1, "layername": "Archive", "mapid": "048-G-45359", "city": "Katowice", "instinfo": "0100"}}, {"type": "Feature", "geometry": {"type": "Point", "coordinates": [19.1414, 48.7368]}, "properties": {"type": "archive", "num": 1, "layername": "Archive", "mapid": "421-G-45636", "city": "Bansk\u00e1 Bystrica", "instinfo": "0101"}}, {"type": "Feature", "geometry": {"type": "Point", "coordinates": [-0.8882, 52.236]}, "properties": {"type": "archive", "num": 1, "layername": "Archive", "mapid": "044-G-04573", "city": "Northampton", "instinfo": "0110"}}, {"type": "Feature", "geometry": {"type": "Point", "coordinates": [19.7957, 48.0886]}, "properties": {"type": "archive", "num": 1, "layername": "Archive", "mapid": "036-G-45749", "city": "Salg\u00f3tarj\u00e1n", "instinfo": "0100"}}, {"type": "Feature", "geometry": {"type": "Point", "coordinates": [20.369, 47.9094]}, "properties": {"type": "archive", "num": 1, "layername": "Archive", "mapid": "036-G-45802", "city": "Eger", "instinfo": "0100"}}, {"type": "Feature", "geometry": {"type": "Point", "coordinates": [20.591, 49.0222]}, "properties": {"type": "archive", "num": 1, "layername": "Archive", "mapid": "421-G-45902", "city": "Levo\u010da", "instinfo": "0100"}}, {"type": "Feature", "geometry": {"type": "Point", "coordinates": [20.7842, 48.1056]}, "properties": {"type": "archive", "num": 1, "layername": "Archive", "mapid": "036-G-45961", "city": "Miskolc", "instinfo": "0100"}}, {"type": "Feature", "geometry": {"type": "Point", "coordinates": [19.9436, 50.0602]}, "properties": {"type": "archive", "num": 1, "layername": "Archive", "mapid": "048-G-46041", "city": "Krak\u00f3w", "instinfo": "1101"}}, {"type": "Feature", "geometry": {"type": "Point", "coordinates": [-1.1572, 52.957]}, "properties": {"type": "archive", "num": 1, "layername": "Archive", "mapid": "044-G-04617", "city": "Nottingham", "instinfo": "0110"}}, {"type": "Feature", "geometry": {"type": "Point", "coordinates": [22.0025, 50.0404]}, "properties": {"type": "archive", "num": 1, "layername": "Archive", "mapid": "048-G-46319", "city": "Rzesz\u00f3w", "instinfo": "0100"}}, {"type": "Feature", "geometry": {"type": "Point", "coordinates": [21.7139, 47.957]}, "properties": {"type": "archive", "num": 1, "layername": "Archive", "mapid": "036-G-46428", "city": "Ny\u00edregyh\u00e1za", "instinfo": "0100"}}, {"type": "Feature", "geometry": {"type": "Point", "coordinates": [21.2619, 48.7162]}, "properties": {"type": "archive", "num": 1, "layername": "Archive", "mapid": "421-G-46442", "city": "Ko\u0161ice", "instinfo": "0101"}}, {"type": "Feature", "geometry": {"type": "Point", "coordinates": [21.2397, 49.0007]}, "properties": {"type": "archive", "num": 1, "layername": "Archive", "mapid": "421-G-46456", "city": "Pre\u0161ov", "instinfo": "0101"}}, {"type": "Feature", "geometry": {"type": "Point", "coordinates": [22.2999, 48.6252]}, "properties": {"type": "archive", "num": 1, "layername": "Archive", "mapid": "380-G-46556", "city": "Uzhhorod", "instinfo": "0101"}}, {"type": "Feature", "geometry": {"type": "Point", "coordinates": [20.1506, 46.2604]}, "properties": {"type": "archive", "num": 1, "layername": "Archive", "mapid": "036-G-46647", "city": "Szeged", "instinfo": "0100"}}, {"type": "Feature", "geometry": {"type": "Point", "coordinates": [20.1891, 47.1756]}, "properties": {"type": "archive", "num": 1, "layername": "Archive", "mapid": "036-G-46744", "city": "Szolnok", "instinfo": "0100"}}, {"type": "Feature", "geometry": {"type": "Point", "coordinates": [21.2724, 46.6412]}, "properties": {"type": "archive", "num": 1, "layername": "Archive", "mapid": "036-G-46802", "city": "Gyula", "instinfo": "0100"}}, {"type": "Feature", "geometry": {"type": "Point", "coordinates": [21.6243, 47.528]}, "properties": {"type": "archive", "num": 1, "layername": "Archive", "mapid": "036-G-46839", "city": "Debrecen", "instinfo": "0100"}}, {"type": "Feature", "geometry": {"type": "Point", "coordinates": [-0.5294, 53.2361]}, "properties": {"type": "archive", "num": 1, "layername": "Archive", "mapid": "044-G-04725", "city": "Lincoln", "instinfo": "0110"}}, {"type": "Feature", "geometry": {"type": "Point", "coordinates": [-0.466, 52.1393]}, "properties": {"type": "archive", "num": 1, "layername": "Archive", "mapid": "044-G-04780", "city": "Bedford", "instinfo": "0110"}}, {"type": "Feature", "geometry": {"type": "Point", "coordinates": [23.5924, 46.7669]}, "properties": {"type": "archive", "num": 1, "layername": "Archive", "mapid": "040-G-47802", "city": "Cluj-Napoca", "instinfo": "1101"}}, {"type": "Feature", "geometry": {"type": "Point", "coordinates": [22.7665000465472, 49.7868000205092]}, "properties": {"type": "archive", "num": 1, "layername": "Archive", "mapid": "048-G-48158", "city": "Przemy\u00c5\u203al", "instinfo": "0100"}}, {"type": "Feature", "geometry": {"type": "Point", "coordinates": [-0.1877, 52.3329]}, "properties": {"type": "archive", "num": 1, "layername": "Archive", "mapid": "044-G-04834", "city": null, "instinfo": "0100"}}, {"type": "Feature", "geometry": {"type": "Point", "coordinates": [24.7082, 48.9226]}, "properties": {"type": "archive", "num": 1, "layername": "Archive", "mapid": "380-G-48353", "city": "Ivano-Frankivsk", "instinfo": "0101"}}, {"type": "Feature", "geometry": {"type": "Point", "coordinates": [25.9375, 48.2905]}, "properties": {"type": "archive", "num": 1, "layername": "Archive", "mapid": "380-G-48383", "city": "Chernivtsi", "instinfo": "0101"}}, {"type": "Feature", "geometry": {"type": "Point", "coordinates": [26.5654, 48.6759]}, "properties": {"type": "archive", "num": 1, "layername": "Archive", "mapid": "380-G-48408", "city": "Kam^'yanets-Podilskyy", "instinfo": "0100"}}, {"type": "Feature", "geometry": {"type": "Point", "coordinates": [25.6055, 49.5525]}, "properties": {"type": "archive", "num": 1, "layername": "Archive", "mapid": "380-G-48445", "city": "Ternopil", "instinfo": "0101"}}, {"type": "Feature", "geometry": {"type": "Point", "coordinates": [26.2583, 50.6191]}, "properties": {"type": "archive", "num": 1, "layername": "Archive", "mapid": "380-G-48470", "city": "Rivne", "instinfo": "0101"}}, {"type": "Feature", "geometry": {"type": "Point", "coordinates": [-1.3173, 51.0616]}, "properties": {"type": "archive", "num": 1, "layername": "Archive", "mapid": "044-G-04871", "city": "Winchester", "instinfo": "0110"}}, {"type": "Feature", "geometry": {"type": "Point", "coordinates": [27.5943, 47.1602]}, "properties": {"type": "archive", "num": 1, "layername": "Archive", "mapid": "040-G-48835", "city": "Ia\u015fi", "instinfo": "1101"}}, {"type": "Feature", "geometry": {"type": "Point", "coordinates": [22.5563, 51.2532]}, "properties": {"type": "archive", "num": 1, "layername": "Archive", "mapid": "048-G-48991", "city": "Lublin", "instinfo": "0101"}}, {"type": "Feature", "geometry": {"type": "Point", "coordinates": [23.2529000470002, 50.7225000213807]}, "properties": {"type": "archive", "num": 1, "layername": "Archive", "mapid": "048-G-49049", "city": "Zamo\u015b\u0107", "instinfo": "0100"}}, {"type": "Feature", "geometry": {"type": "Point", "coordinates": [-0.7668, 50.8358]}, "properties": {"type": "archive", "num": 1, "layername": "Archive", "mapid": "044-G-04911", "city": "Chichester", "instinfo": "0100"}}, {"type": "Feature", "geometry": {"type": "Point", "coordinates": [23.1664, 53.1423]}, "properties": {"type": "archive", "num": 1, "layername": "Archive", "mapid": "048-G-49143", "city": "Bia\u0142ystok", "instinfo": "0100"}}, {"type": "Feature", "geometry": {"type": "Point", "coordinates": [24.0091666666667, 52.0961111111111]}, "properties": {"type": "archive", "num": 1, "layername": "Archive", "mapid": "375-G-49166", "city": "Brest", "instinfo": "0101"}}, {"type": "Feature", "geometry": {"type": "Point", "coordinates": [-1.2563, 51.7526]}, "properties": {"type": "archive", "num": 1, "layername": "Archive", "mapid": "044-G-04922", "city": "Oxford", "instinfo": "0110"}}, {"type": "Feature", "geometry": {"type": "Point", "coordinates": [22.9286000466982, 54.0992000245255]}, "properties": {"type": "archive", "num": 1, "layername": "Archive", "mapid": "048-G-49236", "city": "Suwa\u0142ki", "instinfo": "0100"}}, {"type": "Feature", "geometry": {"type": "Point", "coordinates": [-0.9751, 51.4505]}, "properties": {"type": "archive", "num": 1, "layername": "Archive", "mapid": "044-G-04963", "city": "Reading", "instinfo": "0110"}}, {"type": "Feature", "geometry": {"type": "Point", "coordinates": [25.2822, 54.6888]}, "properties": {"type": "archive", "num": 1, "layername": "Archive", "mapid": "370-G-49675", "city": "Vilnius", "instinfo": "1101"}}, {"type": "Feature", "geometry": {"type": "Point", "coordinates": [25.3287, 50.7471]}, "properties": {"type": "archive", "num": 1, "layername": "Archive", "mapid": "380-G-49929", "city": "Lutsk", "instinfo": "0101"}}, {"type": "Feature", "geometry": {"type": "Point", "coordinates": [-0.6237, 51.4809]}, "properties": {"type": "archive", "num": 1, "layername": "Archive", "mapid": "044-G-04999", "city": "Windsor", "instinfo": "0100"}}, {"type": "Feature", "geometry": {"type": "Point", "coordinates": [30.2051, 55.1824]}, "properties": {"type": "archive", "num": 1, "layername": "Archive", "mapid": "375-G-50047", "city": "Vitebsk", "instinfo": "0101"}}, {"type": "Feature", "geometry": {"type": "Point", "coordinates": [31.2906, 51.4987]}, "properties": {"type": "archive", "num": 1, "layername": "Archive", "mapid": "380-G-50191", "city": "Chernihiv", "instinfo": "0101"}}, {"type": "Feature", "geometry": {"type": "Point", "coordinates": [30.744, 46.4726]}, "properties": {"type": "archive", "num": 1, "layername": "Archive", "mapid": "380-G-50333", "city": "Odessa", "instinfo": "0101"}}, {"type": "Feature", "geometry": {"type": "Point", "coordinates": [28.4949, 49.2335]}, "properties": {"type": "archive", "num": 1, "layername": "Archive", "mapid": "380-G-50412", "city": "Vinnytsya", "instinfo": "0101"}}, {"type": "Feature", "geometry": {"type": "Point", "coordinates": [28.6804, 50.264]}, "properties": {"type": "archive", "num": 1, "layername": "Archive", "mapid": "380-G-50414", "city": "Zhytomyr", "instinfo": "0101"}}, {"type": "Feature", "geometry": {"type": "Point", "coordinates": [32.2647, 48.5063]}, "properties": {"type": "archive", "num": 1, "layername": "Archive", "mapid": "380-G-50548", "city": "Kirovohrad", "instinfo": "0100"}}, {"type": "Feature", "geometry": {"type": "Point", "coordinates": [32.0592, 49.4399]}, "properties": {"type": "archive", "num": 1, "layername": "Archive", "mapid": "380-G-50570", "city": "Cherkasy", "instinfo": "0101"}}, {"type": "Feature", "geometry": {"type": "Point", "coordinates": [32.0308, 46.9652]}, "properties": {"type": "archive", "num": 1, "layername": "Archive", "mapid": "380-G-50649", "city": "Mykolayiv", "instinfo": "0101"}}, {"type": "Feature", "geometry": {"type": "Point", "coordinates": [32.5859, 46.6751]}, "properties": {"type": "archive", "num": 1, "layername": "Archive", "mapid": "380-G-50654", "city": "Kherson", "instinfo": "0101"}}, {"type": "Feature", "geometry": {"type": "Point", "coordinates": [24.4568, 60.9987]}, "properties": {"type": "archive", "num": 1, "layername": "Archive", "mapid": "358-G-50996", "city": "H\u00e4meenlinna", "instinfo": "0100"}}, {"type": "Feature", "geometry": {"type": "Point", "coordinates": [-0.0859, 51.7964]}, "properties": {"type": "archive", "num": 1, "layername": "Archive", "mapid": "044-G-05115", "city": null, "instinfo": "0100"}}, {"type": "Feature", "geometry": {"type": "Point", "coordinates": [-8.4733, 51.898]}, "properties": {"type": "archive", "num": 1, "layername": "Archive", "mapid": "353-G-00516", "city": "Cork", "instinfo": "0101"}}, {"type": "Feature", "geometry": {"type": "Point", "coordinates": [25.4807, 65.0099]}, "properties": {"type": "archive", "num": 1, "layername": "Archive", "mapid": "358-G-51979", "city": "Oulu", "instinfo": "0100"}}, {"type": "Feature", "geometry": {"type": "Point", "coordinates": [29.7605, 62.6031]}, "properties": {"type": "archive", "num": 1, "layername": "Archive", "mapid": "358-G-52317", "city": "Joensuu", "instinfo": "0100"}}, {"type": "Feature", "geometry": {"type": "Point", "coordinates": [28.7494, 60.7098]}, "properties": {"type": "archive", "num": 1, "layername": "Archive", "mapid": "007-G-52693", "city": "Vyborg", "instinfo": "0100"}}, {"type": "Feature", "geometry": {"type": "Point", "coordinates": [-0.5625, 51.3097]}, "properties": {"type": "archive", "num": 1, "layername": "Archive", "mapid": "044-G-05292", "city": "Woking", "instinfo": "0100"}}, {"type": "Feature", "geometry": {"type": "Point", "coordinates": [31.2773, 58.5254]}, "properties": {"type": "archive", "num": 1, "layername": "Archive", "mapid": "007-G-52987", "city": "Novgorod", "instinfo": "0100"}}, {"type": "Feature", "geometry": {"type": "Point", "coordinates": [35.9101, 56.8567]}, "properties": {"type": "archive", "num": 1, "layername": "Archive", "mapid": "007-G-53290", "city": "Tver", "instinfo": "0101"}}, {"type": "Feature", "geometry": {"type": "Point", "coordinates": [34.3602, 61.7828]}, "properties": {"type": "archive", "num": 1, "layername": "Archive", "mapid": "007-G-53336", "city": "Petrozavodsk", "instinfo": "1101"}}, {"type": "Feature", "geometry": {"type": "Point", "coordinates": [40.5252, 64.5397]}, "properties": {"type": "archive", "num": 1, "layername": "Archive", "mapid": "007-G-53669", "city": "Arkhangelsk", "instinfo": "0101"}}, {"type": "Feature", "geometry": {"type": "Point", "coordinates": [40.929, 57.7668]}, "properties": {"type": "archive", "num": 1, "layername": "Archive", "mapid": "007-G-53769", "city": "Kostroma", "instinfo": "0100"}}, {"type": "Feature", "geometry": {"type": "Point", "coordinates": [39.8891, 59.2216]}, "properties": {"type": "archive", "num": 1, "layername": "Archive", "mapid": "007-G-53842", "city": "Vologda", "instinfo": "0100"}}, {"type": "Feature", "geometry": {"type": "Point", "coordinates": [43.9359, 56.2966]}, "properties": {"type": "archive", "num": 1, "layername": "Archive", "mapid": "007-G-53908", "city": "Nizhniy Novgorod", "instinfo": "0100"}}, {"type": "Feature", "geometry": {"type": "Point", "coordinates": [35.0141, 48.427]}, "properties": {"type": "archive", "num": 1, "layername": "Archive", "mapid": "380-G-54037", "city": "Dnipropetrovsk", "instinfo": "0101"}}, {"type": "Feature", "geometry": {"type": "Point", "coordinates": [35.1088, 47.8568]}, "properties": {"type": "archive", "num": 1, "layername": "Archive", "mapid": "380-G-54039", "city": "Zaporizhzhya", "instinfo": "0101"}}, {"type": "Feature", "geometry": {"type": "Point", "coordinates": [34.554, 49.5891]}, "properties": {"type": "archive", "num": 1, "layername": "Archive", "mapid": "380-G-54055", "city": "Poltava", "instinfo": "0101"}}, {"type": "Feature", "geometry": {"type": "Point", "coordinates": [36.2307, 49.9884]}, "properties": {"type": "archive", "num": 1, "layername": "Archive", "mapid": "380-G-54093", "city": "Kharkiv", "instinfo": "0101"}}, {"type": "Feature", "geometry": {"type": "Point", "coordinates": [37.7809, 47.9759]}, "properties": {"type": "archive", "num": 1, "layername": "Archive", "mapid": "380-G-54153", "city": "Donetsk", "instinfo": "0101"}}, {"type": "Feature", "geometry": {"type": "Point", "coordinates": [39.3181, 48.5696]}, "properties": {"type": "archive", "num": 1, "layername": "Archive", "mapid": "380-G-54252", "city": "Voroshilovgrad", "instinfo": "0101"}}, {"type": "Feature", "geometry": {"type": "Point", "coordinates": [34.8039, 50.9079]}, "properties": {"type": "archive", "num": 1, "layername": "Archive", "mapid": "380-G-54313", "city": "Sumy", "instinfo": "0101"}}, {"type": "Feature", "geometry": {"type": "Point", "coordinates": [36.0684, 52.9641]}, "properties": {"type": "archive", "num": 1, "layername": "Archive", "mapid": "007-G-54369", "city": "Oryol", "instinfo": "0101"}}, {"type": "Feature", "geometry": {"type": "Point", "coordinates": [37.3362000601163, 55.8197000261278]}, "properties": {"type": "archive", "num": 1, "layername": "Archive", "mapid": "007-G-54631", "city": "Krasnogorsk", "instinfo": "0100"}}, {"type": "Feature", "geometry": {"type": "Point", "coordinates": [39.2043, 51.6588]}, "properties": {"type": "archive", "num": 1, "layername": "Archive", "mapid": "007-G-54888", "city": "Voronezh", "instinfo": "0101"}}, {"type": "Feature", "geometry": {"type": "Point", "coordinates": [39.6081, 52.6173]}, "properties": {"type": "archive", "num": 1, "layername": "Archive", "mapid": "007-G-54918", "city": "Lipetsk", "instinfo": "0101"}}, {"type": "Feature", "geometry": {"type": "Point", "coordinates": [-5.0567, 50.2643]}, "properties": {"type": "archive", "num": 1, "layername": "Archive", "mapid": "044-G-05497", "city": "Truro", "instinfo": "0111"}}, {"type": "Feature", "geometry": {"type": "Point", "coordinates": [40.402, 56.1383]}, "properties": {"type": "archive", "num": 1, "layername": "Archive", "mapid": "007-G-55003", "city": "Vladimir", "instinfo": "0100"}}, {"type": "Feature", "geometry": {"type": "Point", "coordinates": [44.5081, 48.7193]}, "properties": {"type": "archive", "num": 1, "layername": "Archive", "mapid": "007-G-55288", "city": "Volgograd", "instinfo": "0101"}}, {"type": "Feature", "geometry": {"type": "Point", "coordinates": [49.1269, 55.7966]}, "properties": {"type": "archive", "num": 1, "layername": "Archive", "mapid": "007-G-55478", "city": "Kazan", "instinfo": "1101"}}, {"type": "Feature", "geometry": {"type": "Point", "coordinates": [50.2238, 53.2506]}, "properties": {"type": "archive", "num": 1, "layername": "Archive", "mapid": "007-G-55512", "city": "Samara", "instinfo": "0101"}}, {"type": "Feature", "geometry": {"type": "Point", "coordinates": [-4.1008, 47.9971]},