{"type": "FeatureCollection", "crs": {"type": "name", "properties": {"name": "urn:ogc:def:crs:OGC:1.3:CRS84"}}, "features": [{"type": "Feature", "properties": {"city": "Vienna", "mapid": "043-G-37384", "layername": "Archive", "num": 7, "type": "archive"}, "geometry": {"type": "Point", "coordinates": [16.3836, 48.2056]}}, {"type": "Feature", "properties": {"city": "Madrid", "mapid": "034-G-07699", "layername": "Archive", "num": 4, "type": "archive"}, "geometry": {"type": "Point", "coordinates": [-3.6916, 40.4193]}}, {"type": "Feature", "properties": {"city": "Munich", "mapid": "049-G-35406", "layername": "Archive", "num": 3, "type": "archive"}, "geometry": {"type": "Point", "coordinates": [11.5703, 48.1383]}}, {"type": "Feature", "properties": {"city": "Stockholm", "mapid": "046-G-34237", "layername": "Archive", "num": 3, "type": "archive"}, "geometry": {"type": "Point", "coordinates": [18.0687, 59.3171]}}, {"type": "Feature", "properties": {"city": "The Hague", "mapid": "031-G-21423", "layername": "Archive", "num": 2, "type": "archive"}, "geometry": {"type": "Point", "coordinates": [4.3091, 52.0811]}}, {"type": "Feature", "properties": {"city": "Kiev", "mapid": "380-G-50468", "layername": "Archive", "num": 2, "type": "archive"}, "geometry": {"type": "Point", "coordinates": [30.5235, 50.4418]}}, {"type": "Feature", "properties": {"city": "London", "mapid": "044-G-05204", "layername": "Archive", "num": 2, "type": "archive"}, "geometry": {"type": "Point", "coordinates": [-0.0865, 51.5106]}}, {"type": "Feature", "properties": {"city": "Berlin", "mapid": "049-G-39307", "layername": "Archive", "num": 2, "type": "archive"}, "geometry": {"type": "Point", "coordinates": [13.4154, 52.5223]}}, {"type": "Feature", "properties": {"city": "Prague", "mapid": "420-G-36826", "layername": "Archive", "num": 2, "type": "archive"}, "geometry": {"type": "Point", "coordinates": [14.4323, 50.0869]}}, {"type": "Feature", "properties": {"city": "Br\u00fcnn", "mapid": "420-G-37303", "layername": "Archive", "num": 2, "type": "archive"}, "geometry": {"type": "Point", "coordinates": [16.6053, 49.1916]}}, {"type": "Feature", "properties": {"city": "Bern", "mapid": "041-G-26824", "layername": "Archive", "num": 2, "type": "archive"}, "geometry": {"type": "Point", "coordinates": [7.4295, 46.9479]}}, {"type": "Feature", "properties": {"city": "Dublin", "mapid": "353-G-01102", "layername": "Archive", "num": 2, "type": "archive"}, "geometry": {"type": "Point", "coordinates": [-6.276, 53.3461]}}, {"type": "Feature", "properties": {"city": "Paris", "mapid": "033-G-18561", "layername": "Archive", "num": 2, "type": "archive"}, "geometry": {"type": "Point", "coordinates": [2.3482, 48.8581]}}, {"type": "Feature", "properties": {"city": "Lisbon", "mapid": "351-G-06667", "layername": "Archive", "num": 2, "type": "archive"}, "geometry": {"type": "Point", "coordinates": [-9.1487, 38.7483]}}, {"type": "Feature", "properties": {"city": "Bucharest", "mapid": "040-G-15326", "layername": "Archive", "num": 2, "type": "archive"}, "geometry": {"type": "Point", "coordinates": [26.0995, 44.4235]}}, {"type": "Feature", "properties": {"city": "Rome", "mapid": "039-G-11402", "layername": "Archive", "num": 2, "type": "archive"}, "geometry": {"type": "Point", "coordinates": [12.4888, 41.9044]}}, {"type": "Feature", "properties": {"city": "Melun", "mapid": "033-G-18664", "layername": "Archive", "num": 1, "type": "archive"}, "geometry": {"type": "Point", "coordinates": [2.659, 48.5384]}}, {"type": "Feature", "properties": {"city": "Troyes", "mapid": "033-G-18869", "layername": "Archive", "num": 1, "type": "archive"}, "geometry": {"type": "Point", "coordinates": [4.0809, 48.288]}}, {"type": "Feature", "properties": {"city": "Mons", "mapid": "032-G-19079", "layername": "Archive", "num": 1, "type": "archive"}, "geometry": {"type": "Point", "coordinates": [3.9514, 50.4542]}}, {"type": "Feature", "properties": {"city": "Namur", "mapid": "032-G-19274", "layername": "Archive", "num": 1, "type": "archive"}, "geometry": {"type": "Point", "coordinates": [4.8675, 50.4693]}}, {"type": "Feature", "properties": {"city": "Clermont-Ferrand", "mapid": "033-G-19626", "layername": "Archive", "num": 1, "type": "archive"}, "geometry": {"type": "Point", "coordinates": [3.0904, 45.7724]}}, {"type": "Feature", "properties": {"city": "Auxerre", "mapid": "033-G-19869", "layername": "Archive", "num": 1, "type": "archive"}, "geometry": {"type": "Point", "coordinates": [3.5634, 47.7955]}}, {"type": "Feature", "properties": {"city": "Dijon", "mapid": "033-G-20096", "layername": "Archive", "num": 1, "type": "archive"}, "geometry": {"type": "Point", "coordinates": [5.0434, 47.3283]}}, {"type": "Feature", "properties": {"city": "Lyon", "mapid": "033-G-20274", "layername": "Archive", "num": 1, "type": "archive"}, "geometry": {"type": "Point", "coordinates": [4.8461, 45.7541]}}, {"type": "Feature", "properties": {"city": "Lille", "mapid": "033-G-21025", "layername": "Archive", "num": 1, "type": "archive"}, "geometry": {"type": "Point", "coordinates": [3.0399, 50.635]}}, {"type": "Feature", "properties": {"city": "Brugge", "mapid": "032-G-21097", "layername": "Archive", "num": 1, "type": "archive"}, "geometry": {"type": "Point", "coordinates": [3.2297, 51.2099]}}, {"type": "Feature", "properties": {"city": "Ghent", "mapid": "032-G-21310", "layername": "Archive", "num": 1, "type": "archive"}, "geometry": {"type": "Point", "coordinates": [3.7244, 51.053]}}, {"type": "Feature", "properties": {"city": "Utrecht", "mapid": "031-G-21668", "layername": "Archive", "num": 1, "type": "archive"}, "geometry": {"type": "Point", "coordinates": [5.1082, 52.0973]}}, {"type": "Feature", "properties": {"city": "Brussels", "mapid": "032-G-21783", "layername": "Archive", "num": 1, "type": "archive"}, "geometry": {"type": "Point", "coordinates": [4.3502, 50.8492]}}, {"type": "Feature", "properties": {"city": "^'s-Hertogenbosch", "mapid": "031-G-22189", "layername": "Archive", "num": 1, "type": "archive"}, "geometry": {"type": "Point", "coordinates": [5.3265, 51.6875]}}, {"type": "Feature", "properties": {"city": "Hasselt", "mapid": "032-G-22388", "layername": "Archive", "num": 1, "type": "archive"}, "geometry": {"type": "Point", "coordinates": [5.3327, 50.9304]}}, {"type": "Feature", "properties": {"city": "Li\u00e8ge", "mapid": "032-G-22423", "layername": "Archive", "num": 1, "type": "archive"}, "geometry": {"type": "Point", "coordinates": [5.5735, 50.6455]}}, {"type": "Feature", "properties": {"city": "Edinburgh", "mapid": "044-G-02262", "layername": "Archive", "num": 1, "type": "archive"}, "geometry": {"type": "Point", "coordinates": [-3.2081, 55.9503]}}, {"type": "Feature", "properties": {"city": "Arnhem", "mapid": "031-G-22720", "layername": "Archive", "num": 1, "type": "archive"}, "geometry": {"type": "Point", "coordinates": [5.9126, 51.9835]}}, {"type": "Feature", "properties": {"city": "D\u00fcsseldorf", "mapid": "049-G-23000", "layername": "Archive", "num": 1, "type": "archive"}, "geometry": {"type": "Point", "coordinates": [6.7879, 51.2304]}}, {"type": "Feature", "properties": {"city": "Zwolle", "mapid": "031-G-23156", "layername": "Archive", "num": 1, "type": "archive"}, "geometry": {"type": "Point", "coordinates": [6.095, 52.508]}}, {"type": "Feature", "properties": {"city": "Assen", "mapid": "031-G-23304", "layername": "Archive", "num": 1, "type": "archive"}, "geometry": {"type": "Point", "coordinates": [6.5564, 52.9962]}}, {"type": "Feature", "properties": {"city": "Oldenburg", "mapid": "049-G-23621", "layername": "Archive", "num": 1, "type": "archive"}, "geometry": {"type": "Point", "coordinates": [8.2081, 53.1412]}}, {"type": "Feature", "properties": {"city": "Osnabr\u00fcck", "mapid": "049-G-23654", "layername": "Archive", "num": 1, "type": "archive"}, "geometry": {"type": "Point", "coordinates": [8.0523, 52.2751]}}, {"type": "Feature", "properties": {"city": "M\u00fcnster", "mapid": "049-G-23959", "layername": "Archive", "num": 1, "type": "archive"}, "geometry": {"type": "Point", "coordinates": [7.6293, 51.9641]}}, {"type": "Feature", "properties": {"city": "Aurich", "mapid": "049-G-24226", "layername": "Archive", "num": 1, "type": "archive"}, "geometry": {"type": "Point", "coordinates": [7.4845, 53.4721]}}, {"type": "Feature", "properties": {"city": "Schleswig", "mapid": "049-G-24371", "layername": "Archive", "num": 1, "type": "archive"}, "geometry": {"type": "Point", "coordinates": [9.5667, 54.5171]}}, {"type": "Feature", "properties": {"city": "Hamburg", "mapid": "049-G-24742", "layername": "Archive", "num": 1, "type": "archive"}, "geometry": {"type": "Point", "coordinates": [9.997, 53.5469]}}, {"type": "Feature", "properties": {"city": "Marburg", "mapid": "049-G-24947", "layername": "Archive", "num": 1, "type": "archive"}, "geometry": {"type": "Point", "coordinates": [8.7732, 50.8079]}}, {"type": "Feature", "properties": {"city": "Detmold", "mapid": "049-G-25036", "layername": "Archive", "num": 1, "type": "archive"}, "geometry": {"type": "Point", "coordinates": [8.8772, 51.9416]}}, {"type": "Feature", "properties": {"city": "Bremen", "mapid": "049-G-25383", "layername": "Archive", "num": 1, "type": "archive"}, "geometry": {"type": "Point", "coordinates": [8.8033, 53.0854]}}, {"type": "Feature", "properties": {"city": "Hannover", "mapid": "049-G-25543", "layername": "Archive", "num": 1, "type": "archive"}, "geometry": {"type": "Point", "coordinates": [9.722, 52.3782]}}, {"type": "Feature", "properties": {"city": "Wolfenb\u00fcttel", "mapid": "049-G-25657", "layername": "Archive", "num": 1, "type": "archive"}, "geometry": {"type": "Point", "coordinates": [10.5417, 52.1672]}}, {"type": "Feature", "properties": {"city": "Sondershausen", "mapid": "049-G-26054", "layername": "Archive", "num": 1, "type": "archive"}, "geometry": {"type": "Point", "coordinates": [10.8653, 51.3707]}}, {"type": "Feature", "properties": {"city": "Gotha", "mapid": "049-G-26137", "layername": "Archive", "num": 1, "type": "archive"}, "geometry": {"type": "Point", "coordinates": [10.7082, 50.952]}}, {"type": "Feature", "properties": {"city": "Arnstadt", "mapid": "049-G-26196", "layername": "Archive", "num": 1, "type": "archive"}, "geometry": {"type": "Point", "coordinates": [10.9475, 50.8354]}}, {"type": "Feature", "properties": {"city": "Grenoble", "mapid": "033-G-26234", "layername": "Archive", "num": 1, "type": "archive"}, "geometry": {"type": "Point", "coordinates": [5.7259, 45.1878]}}, {"type": "Feature", "properties": {"city": "Geneva", "mapid": "041-G-26330", "layername": "Archive", "num": 1, "type": "archive"}, "geometry": {"type": "Point", "coordinates": [6.1404, 46.2034]}}, {"type": "Feature", "properties": {"city": "Besan\u00e7on", "mapid": "033-G-26567", "layername": "Archive", "num": 1, "type": "archive"}, "geometry": {"type": "Point", "coordinates": [6.0239, 47.2452]}}, {"type": "Feature", "properties": {"city": "Lausanne", "mapid": "041-G-26677", "layername": "Archive", "num": 1, "type": "archive"}, "geometry": {"type": "Point", "coordinates": [6.624, 46.5216]}}, {"type": "Feature", "properties": {"city": "Neuch\u00e2tel", "mapid": "041-G-26718", "layername": "Archive", "num": 1, "type": "archive"}, "geometry": {"type": "Point", "coordinates": [6.9324, 46.9915]}}, {"type": "Feature", "properties": {"city": "Fribourg", "mapid": "041-G-26779", "layername": "Archive", "num": 1, "type": "archive"}, "geometry": {"type": "Point", "coordinates": [7.1623, 46.8063]}}, {"type": "Feature", "properties": {"city": "Basel", "mapid": "041-G-26913", "layername": "Archive", "num": 1, "type": "archive"}, "geometry": {"type": "Point", "coordinates": [7.5895, 47.5495]}}, {"type": "Feature", "properties": {"city": "Solothurn", "mapid": "041-G-26950", "layername": "Archive", "num": 1, "type": "archive"}, "geometry": {"type": "Point", "coordinates": [7.5358, 47.2061]}}, {"type": "Feature", "properties": {"city": "Aarau", "mapid": "041-G-26995", "layername": "Archive", "num": 1, "type": "archive"}, "geometry": {"type": "Point", "coordinates": [8.046, 47.3912]}}, {"type": "Feature", "properties": {"city": "Liestal", "mapid": "041-G-27021", "layername": "Archive", "num": 1, "type": "archive"}, "geometry": {"type": "Point", "coordinates": [7.7427, 47.4813]}}, {"type": "Feature", "properties": {"city": "Lucerne", "mapid": "041-G-27122", "layername": "Archive", "num": 1, "type": "archive"}, "geometry": {"type": "Point", "coordinates": [8.3036, 47.0476]}}, {"type": "Feature", "properties": {"city": "Turin", "mapid": "039-G-27165", "layername": "Archive", "num": 1, "type": "archive"}, "geometry": {"type": "Point", "coordinates": [7.6785, 45.0613]}}, {"type": "Feature", "properties": {"city": "Sion", "mapid": "041-G-27222", "layername": "Archive", "num": 1, "type": "archive"}, "geometry": {"type": "Point", "coordinates": [7.3646, 46.2293]}}, {"type": "Feature", "properties": {"city": "Metz", "mapid": "033-G-27350", "layername": "Archive", "num": 1, "type": "archive"}, "geometry": {"type": "Point", "coordinates": [6.1835, 49.117]}}, {"type": "Feature", "properties": {"city": "Nancy", "mapid": "033-G-27377", "layername": "Archive", "num": 1, "type": "archive"}, "geometry": {"type": "Point", "coordinates": [6.1811, 48.6926]}}, {"type": "Feature", "properties": {"city": "Koblenz", "mapid": "049-G-28019", "layername": "Archive", "num": 1, "type": "archive"}, "geometry": {"type": "Point", "coordinates": [7.5949, 50.3548]}}, {"type": "Feature", "properties": {"city": "Idstein", "mapid": "049-G-28113", "layername": "Archive", "num": 1, "type": "archive"}, "geometry": {"type": "Point", "coordinates": [8.2677, 50.221]}}, {"type": "Feature", "properties": {"city": "Speyer", "mapid": "049-G-28215", "layername": "Archive", "num": 1, "type": "archive"}, "geometry": {"type": "Point", "coordinates": [8.4286, 49.315]}}, {"type": "Feature", "properties": {"city": "Colmar", "mapid": "033-G-28224", "layername": "Archive", "num": 1, "type": "archive"}, "geometry": {"type": "Point", "coordinates": [7.3604, 48.0826]}}, {"type": "Feature", "properties": {"city": "Strasbourg", "mapid": "033-G-28277", "layername": "Archive", "num": 1, "type": "archive"}, "geometry": {"type": "Point", "coordinates": [7.7308, 48.5791]}}, {"type": "Feature", "properties": {"city": "Karlsruhe", "mapid": "049-G-28316", "layername": "Archive", "num": 1, "type": "archive"}, "geometry": {"type": "Point", "coordinates": [8.3866, 49.0104]}}, {"type": "Feature", "properties": {"city": "Stuttgart", "mapid": "049-G-28575", "layername": "Archive", "num": 1, "type": "archive"}, "geometry": {"type": "Point", "coordinates": [9.1825, 48.7758]}}, {"type": "Feature", "properties": {"city": "Sigmaringen", "mapid": "049-G-28646", "layername": "Archive", "num": 1, "type": "archive"}, "geometry": {"type": "Point", "coordinates": [9.2146, 48.0903]}}, {"type": "Feature", "properties": {"city": "Darmstadt", "mapid": "049-G-28753", "layername": "Archive", "num": 1, "type": "archive"}, "geometry": {"type": "Point", "coordinates": [8.6524, 49.8729]}}, {"type": "Feature", "properties": {"city": "W\u00fcrzburg", "mapid": "049-G-29036", "layername": "Archive", "num": 1, "type": "archive"}, "geometry": {"type": "Point", "coordinates": [9.9353, 49.795]}}, {"type": "Feature", "properties": {"city": "Meiningen", "mapid": "049-G-29126", "layername": "Archive", "num": 1, "type": "archive"}, "geometry": {"type": "Point", "coordinates": [10.42, 50.571]}}, {"type": "Feature", "properties": {"city": "Coburg", "mapid": "049-G-29214", "layername": "Archive", "num": 1, "type": "archive"}, "geometry": {"type": "Point", "coordinates": [10.96, 50.2593]}}, {"type": "Feature", "properties": {"city": "Bamberg", "mapid": "049-G-29246", "layername": "Archive", "num": 1, "type": "archive"}, "geometry": {"type": "Point", "coordinates": [10.8871, 49.8926]}}, {"type": "Feature", "properties": {"city": "N\u00fcrnberg", "mapid": "049-G-29290", "layername": "Archive", "num": 1, "type": "archive"}, "geometry": {"type": "Point", "coordinates": [11.0804, 49.4468]}}, {"type": "Feature", "properties": {"city": "Neuburg an der Donau", "mapid": "049-G-29477", "layername": "Archive", "num": 1, "type": "archive"}, "geometry": {"type": "Point", "coordinates": [11.1801, 48.7342]}}, {"type": "Feature", "properties": {"city": "Locarno", "mapid": "041-G-29611", "layername": "Archive", "num": 1, "type": "archive"}, "geometry": {"type": "Point", "coordinates": [8.7954, 46.168]}}, {"type": "Feature", "properties": {"city": "Bellinzona", "mapid": "041-G-29613", "layername": "Archive", "num": 1, "type": "archive"}, "geometry": {"type": "Point", "coordinates": [9.0169, 46.1891]}}, {"type": "Feature", "properties": {"city": "Milan", "mapid": "039-G-29741", "layername": "Archive", "num": 1, "type": "archive"}, "geometry": {"type": "Point", "coordinates": [9.1696, 45.4752]}}, {"type": "Feature", "properties": {"city": "Schwyz", "mapid": "041-G-29831", "layername": "Archive", "num": 1, "type": "archive"}, "geometry": {"type": "Point", "coordinates": [8.6547, 47.022]}}, {"type": "Feature", "properties": {"city": "Zug", "mapid": "041-G-29842", "layername": "Archive", "num": 1, "type": "archive"}, "geometry": {"type": "Point", "coordinates": [8.5153, 47.1662]}}, {"type": "Feature", "properties": {"city": "Z\u00fcrich", "mapid": "041-G-29851", "layername": "Archive", "num": 1, "type": "archive"}, "geometry": {"type": "Point", "coordinates": [8.544, 47.378]}}, {"type": "Feature", "properties": {"city": "Schaffhausen", "mapid": "041-G-29894", "layername": "Archive", "num": 1, "type": "archive"}, "geometry": {"type": "Point", "coordinates": [8.6397, 47.6967]}}, {"type": "Feature", "properties": {"city": "Frauenfeld", "mapid": "041-G-29921", "layername": "Archive", "num": 1, "type": "archive"}, "geometry": {"type": "Point", "coordinates": [8.8971, 47.5569]}}, {"type": "Feature", "properties": {"city": "Herisau", "mapid": "041-G-29965", "layername": "Archive", "num": 1, "type": "archive"}, "geometry": {"type": "Point", "coordinates": [9.2785, 47.3879]}}, {"type": "Feature", "properties": {"city": "Sankt Gallen", "mapid": "041-G-29977", "layername": "Archive", "num": 1, "type": "archive"}, "geometry": {"type": "Point", "coordinates": [9.3805, 47.4271]}}, {"type": "Feature", "properties": {"city": "Chur", "mapid": "041-G-30114", "layername": "Archive", "num": 1, "type": "archive"}, "geometry": {"type": "Point", "coordinates": [9.5321, 46.8519]}}, {"type": "Feature", "properties": {"city": "Brescia", "mapid": "039-G-30360", "layername": "Archive", "num": 1, "type": "archive"}, "geometry": {"type": "Point", "coordinates": [10.2122, 45.542]}}, {"type": "Feature", "properties": {"city": "Mantua", "mapid": "039-G-30468", "layername": "Archive", "num": 1, "type": "archive"}, "geometry": {"type": "Point", "coordinates": [10.7905, 45.1529]}}, {"type": "Feature", "properties": {"city": "Trondheim", "mapid": "047-G-30817", "layername": "Archive", "num": 1, "type": "archive"}, "geometry": {"type": "Point", "coordinates": [10.3943, 63.4274]}}, {"type": "Feature", "properties": {"city": "Christiania", "mapid": "047-G-31801", "layername": "Archive", "num": 1, "type": "archive"}, "geometry": {"type": "Point", "coordinates": [10.7507, 59.9113]}}, {"type": "Feature", "properties": {"city": null, "mapid": "046-G-32927", "layername": "Archive", "num": 1, "type": "archive"}, "geometry": {"type": "Point", "coordinates": [14.8934, 58.4458]}}, {"type": "Feature", "properties": {"city": "Uppsala", "mapid": "046-G-34191", "layername": "Archive", "num": 1, "type": "archive"}, "geometry": {"type": "Point", "coordinates": [17.6413, 59.8594]}}, {"type": "Feature", "properties": {"city": "Rovigo", "mapid": "039-G-34575", "layername": "Archive", "num": 1, "type": "archive"}, "geometry": {"type": "Point", "coordinates": [11.783, 45.0705]}}, {"type": "Feature", "properties": {"city": "Venice", "mapid": "039-G-34688", "layername": "Archive", "num": 1, "type": "archive"}, "geometry": {"type": "Point", "coordinates": [12.3248, 45.4393]}}, {"type": "Feature", "properties": {"city": "Innsbruck", "mapid": "043-G-34737", "layername": "Archive", "num": 1, "type": "archive"}, "geometry": {"type": "Point", "coordinates": [11.3936, 47.2661]}}, {"type": "Feature", "properties": {"city": "Salzburg", "mapid": "043-G-35068", "layername": "Archive", "num": 1, "type": "archive"}, "geometry": {"type": "Point", "coordinates": [13.0548, 47.8088]}}, {"type": "Feature", "properties": {"city": "Landshut", "mapid": "049-G-35521", "layername": "Archive", "num": 1, "type": "archive"}, "geometry": {"type": "Point", "coordinates": [12.1585, 48.5386]}}, {"type": "Feature", "properties": {"city": "Amberg", "mapid": "049-G-35719", "layername": "Archive", "num": 1, "type": "archive"}, "geometry": {"type": "Point", "coordinates": [11.8582, 49.4419]}}, {"type": "Feature", "properties": {"city": "Linz", "mapid": "043-G-36468", "layername": "Archive", "num": 1, "type": "archive"}, "geometry": {"type": "Point", "coordinates": [14.2893, 48.3025]}}, {"type": "Feature", "properties": {"city": "Graz", "mapid": "043-G-37954", "layername": "Archive", "num": 1, "type": "archive"}, "geometry": {"type": "Point", "coordinates": [15.4226, 47.0629]}}, {"type": "Feature", "properties": {"city": "Agram", "mapid": "385-G-38250", "layername": "Archive", "num": 1, "type": "archive"}, "geometry": {"type": "Point", "coordinates": [15.9724, 45.8135]}}, {"type": "Feature", "properties": {"city": "Rudolstadt", "mapid": "049-G-38413", "layername": "Archive", "num": 1, "type": "archive"}, "geometry": {"type": "Point", "coordinates": [11.3431, 50.7202]}}, {"type": "Feature", "properties": {"city": "Weimar", "mapid": "049-G-38453", "layername": "Archive", "num": 1, "type": "archive"}, "geometry": {"type": "Point", "coordinates": [11.3251, 50.9823]}}, {"type": "Feature", "properties": {"city": null, "mapid": "049-G-38625", "layername": "Archive", "num": 1, "type": "archive"}, "geometry": {"type": "Point", "coordinates": [12.0862, 51.9674]}}, {"type": "Feature", "properties": {"city": "Greiz", "mapid": "049-G-38740", "layername": "Archive", "num": 1, "type": "archive"}, "geometry": {"type": "Point", "coordinates": [12.1981, 50.6548]}}, {"type": "Feature", "properties": {"city": "Altenburg", "mapid": "049-G-38788", "layername": "Archive", "num": 1, "type": "archive"}, "geometry": {"type": "Point", "coordinates": [12.4382, 50.9822]}}, {"type": "Feature", "properties": {"city": "Magdeburg", "mapid": "049-G-38910", "layername": "Archive", "num": 1, "type": "archive"}, "geometry": {"type": "Point", "coordinates": [11.6306, 52.1309]}}, {"type": "Feature", "properties": {"city": "Dresden", "mapid": "049-G-39679", "layername": "Archive", "num": 1, "type": "archive"}, "geometry": {"type": "Point", "coordinates": [13.7325, 51.0515]}}, {"type": "Feature", "properties": {"city": "Schwerin", "mapid": "049-G-39717", "layername": "Archive", "num": 1, "type": "archive"}, "geometry": {"type": "Point", "coordinates": [11.4011, 53.6353]}}, {"type": "Feature", "properties": {"city": "Stettin", "mapid": "048-G-40891", "layername": "Archive", "num": 1, "type": "archive"}, "geometry": {"type": "Point", "coordinates": [14.546, 53.4242]}}, {"type": "Feature", "properties": {"city": "Breslau", "mapid": "048-G-41404", "layername": "Archive", "num": 1, "type": "archive"}, "geometry": {"type": "Point", "coordinates": [17.0214, 51.1112]}}, {"type": "Feature", "properties": {"city": "Posen", "mapid": "048-G-41610", "layername": "Archive", "num": 1, "type": "archive"}, "geometry": {"type": "Point", "coordinates": [16.91, 52.4026]}}, {"type": "Feature", "properties": {"city": "K\u00f6nigsberg", "mapid": "007-G-42673", "layername": "Archive", "num": 1, "type": "archive"}, "geometry": {"type": "Point", "coordinates": [20.5154, 54.7104]}}, {"type": "Feature", "properties": {"city": "Warsaw", "mapid": "048-G-43516", "layername": "Archive", "num": 1, "type": "archive"}, "geometry": {"type": "Point", "coordinates": [21.0155, 52.246]}}, {"type": "Feature", "properties": {"city": "Budapest", "mapid": "036-G-44485", "layername": "Archive", "num": 1, "type": "archive"}, "geometry": {"type": "Point", "coordinates": [19.0516, 47.491]}}, {"type": "Feature", "properties": {"city": "Ia\u015fi", "mapid": "040-G-48835", "layername": "Archive", "num": 1, "type": "archive"}, "geometry": {"type": "Point", "coordinates": [27.5943, 47.1602]}}, {"type": "Feature", "properties": {"city": "Windsor", "mapid": "044-G-04999", "layername": "Archive", "num": 1, "type": "archive"}, "geometry": {"type": "Point", "coordinates": [-0.6237, 51.4809]}}, {"type": "Feature", "properties": {"city": "Helsingfors", "mapid": "358-G-51111", "layername": "Archive", "num": 1, "type": "archive"}, "geometry": {"type": "Point", "coordinates": [24.9472, 60.2087]}}, {"type": "Feature", "properties": {"city": "Appenzell", "mapid": "041-T-90048", "layername": "Archive", "num": 1, "type": "archive"}, "geometry": {"type": "Point", "coordinates": [9.40843746114222, 47.3297173266167]}}, {"type": "Feature", "properties": {"city": "Sarnen", "mapid": "041-T-90050", "layername": "Archive", "num": 1, "type": "archive"}, "geometry": {"type": "Point", "coordinates": [8.24317260604864, 46.8994441210521]}}, {"type": "Feature", "properties": {"city": "Stans", "mapid": "041-T-90051", "layername": "Archive", "num": 1, "type": "archive"}, "geometry": {"type": "Point", "coordinates": [8.36458239013519, 46.9565144296049]}}, {"type": "Feature", "properties": {"city": "Altdorf", "mapid": "041-T-90052", "layername": "Archive", "num": 1, "type": "archive"}, "geometry": {"type": "Point", "coordinates": [8.64362759134422, 46.8850456029223]}}, {"type": "Feature", "properties": {"city": "Glarus", "mapid": "041-T-90064", "layername": "Archive", "num": 1, "type": "archive"}, "geometry": {"type": "Point", "coordinates": [9.06575313599518, 47.0376234328268]}}, {"type": "Feature", "properties": {"city": "Simancas", "mapid": "034-T-90215", "layername": "Archive", "num": 1, "type": "archive"}, "geometry": {"type": "Point", "coordinates": [-4.82666666666665, 41.5902777777778]}}, {"type": "Feature", "properties": {"city": "Nantes", "mapid": "033-G-06099", "layername": "Archive", "num": 1, "type": "archive"}, "geometry": {"type": "Point", "coordinates": [-1.5529, 47.2173]}}, {"type": "Feature", "properties": {"city": "Sevilla", "mapid": "034-G-06960", "layername": "Archive", "num": 1, "type": "archive"}, "geometry": {"type": "Point", "coordinates": [-5.9848, 37.3878]}}, {"type": "Feature", "properties": {"city": "A Coru\u00f1a", "mapid": "034-G-07235", "layername": "Archive", "num": 1, "type": "archive"}, "geometry": {"type": "Point", "coordinates": [-8.3973, 43.3711]}}, {"type": "Feature", "properties": {"city": "Valladolid", "mapid": "034-G-07619", "layername": "Archive", "num": 1, "type": "archive"}, "geometry": {"type": "Point", "coordinates": [-4.7275, 41.6508]}}, {"type": "Feature", "properties": {"city": "Alcal\u00e1 de Henares", "mapid": "034-G-07711", "layername": "Archive", "num": 1, "type": "archive"}, "geometry": {"type": "Point", "coordinates": [-3.3694, 40.4835]}}, {"type": "Feature", "properties": {"city": "Pamplona", "mapid": "034-G-07960", "layername": "Archive", "num": 1, "type": "archive"}, "geometry": {"type": "Point", "coordinates": [-1.6532, 42.8094]}}, {"type": "Feature", "properties": {"city": "Bordeaux", "mapid": "033-G-08122", "layername": "Archive", "num": 1, "type": "archive"}, "geometry": {"type": "Point", "coordinates": [-0.5731, 44.8312]}}, {"type": "Feature", "properties": {"city": "Valencia", "mapid": "034-G-08427", "layername": "Archive", "num": 1, "type": "archive"}, "geometry": {"type": "Point", "coordinates": [-0.3774, 39.4709]}}, {"type": "Feature", "properties": {"city": "Granada", "mapid": "034-G-08574", "layername": "Archive", "num": 1, "type": "archive"}, "geometry": {"type": "Point", "coordinates": [-3.6011, 37.1811]}}, {"type": "Feature", "properties": {"city": "Barcelona", "mapid": "034-G-08928", "layername": "Archive", "num": 1, "type": "archive"}, "geometry": {"type": "Point", "coordinates": [2.175, 41.3962]}}, {"type": "Feature", "properties": {"city": "Palma", "mapid": "034-G-08938", "layername": "Archive", "num": 1, "type": "archive"}, "geometry": {"type": "Point", "coordinates": [2.6583, 39.5724]}}, {"type": "Feature", "properties": {"city": "Toulouse", "mapid": "033-G-09239", "layername": "Archive", "num": 1, "type": "archive"}, "geometry": {"type": "Point", "coordinates": [1.4484, 43.606]}}, {"type": "Feature", "properties": {"city": "N\u00eemes", "mapid": "033-G-09795", "layername": "Archive", "num": 1, "type": "archive"}, "geometry": {"type": "Point", "coordinates": [4.3651, 43.8392]}}, {"type": "Feature", "properties": {"city": "Marseille", "mapid": "033-G-10005", "layername": "Archive", "num": 1, "type": "archive"}, "geometry": {"type": "Point", "coordinates": [5.3733, 43.2959]}}, {"type": "Feature", "properties": {"city": "Avignon", "mapid": "033-G-09835", "layername": "Archive", "num": 1, "type": "archive"}, "geometry": {"type": "Point", "coordinates": [4.818, 43.9517]}}, {"type": "Feature", "properties": {"city": "Genoa", "mapid": "039-G-10578", "layername": "Archive", "num": 1, "type": "archive"}, "geometry": {"type": "Point", "coordinates": [8.948, 44.4069]}}, {"type": "Feature", "properties": {"city": "Parma", "mapid": "039-G-10758", "layername": "Archive", "num": 1, "type": "archive"}, "geometry": {"type": "Point", "coordinates": [10.3257, 44.8013]}}, {"type": "Feature", "properties": {"city": "Modena", "mapid": "039-G-10809", "layername": "Archive", "num": 1, "type": "archive"}, "geometry": {"type": "Point", "coordinates": [10.9259, 44.6476]}}, {"type": "Feature", "properties": {"city": "Florence", "mapid": "039-G-10895", "layername": "Archive", "num": 1, "type": "archive"}, "geometry": {"type": "Point", "coordinates": [11.248, 43.7717]}}, {"type": "Feature", "properties": {"city": "Palermo", "mapid": "039-G-11107", "layername": "Archive", "num": 1, "type": "archive"}, "geometry": {"type": "Point", "coordinates": [13.3619, 38.1151]}}, {"type": "Feature", "properties": {"city": "Siena", "mapid": "039-G-11487", "layername": "Archive", "num": 1, "type": "archive"}, "geometry": {"type": "Point", "coordinates": [11.3308, 43.3213]}}, {"type": "Feature", "properties": {"city": "Bologna", "mapid": "039-G-11618", "layername": "Archive", "num": 1, "type": "archive"}, "geometry": {"type": "Point", "coordinates": [11.3295, 44.4959]}}, {"type": "Feature", "properties": {"city": "Naples", "mapid": "039-G-12196", "layername": "Archive", "num": 1, "type": "archive"}, "geometry": {"type": "Point", "coordinates": [14.2496, 40.8528]}}, {"type": "Feature", "properties": {"city": "Limoges", "mapid": "033-G-17434", "layername": "Archive", "num": 1, "type": "archive"}, "geometry": {"type": "Point", "coordinates": [1.2624, 45.8214]}}, {"type": "Feature", "properties": {"city": "Poitiers", "mapid": "033-G-17479", "layername": "Archive", "num": 1, "type": "archive"}, "geometry": {"type": "Point", "coordinates": [0.3503, 46.5784]}}, {"type": "Feature", "properties": {"city": "Rouen", "mapid": "033-G-18185", "layername": "Archive", "num": 1, "type": "archive"}, "geometry": {"type": "Point", "coordinates": [1.0898, 49.4385]}}, {"type": "Feature", "properties": {"city": "Amiens", "mapid": "033-G-18378", "layername": "Archive", "num": 1, "type": "archive"}, "geometry": {"type": "Point", "coordinates": [2.2916, 49.8906]}}, {"type": "Feature", "properties": {"city": "Orl\u00e9ans", "mapid": "033-G-18443", "layername": "Archive", "num": 1, "type": "archive"}, "geometry": {"type": "Point", "coordinates": [1.9181, 47.9031]}}, {"type": "Feature", "properties": {"city": "Chartres", "mapid": "033-G-18452", "layername": "Archive", "num": 1, "type": "archive"}, "geometry": {"type": "Point", "coordinates": [1.4829, 48.4494]}}, {"type": "Feature", "properties": {"city": "Versailles", "mapid": "033-G-18548", "layername": "Archive", "num": 1, "type": "archive"}, "geometry": {"type": "Point", "coordinates": [2.1286, 48.8153]}}]}