{"type": "FeatureCollection", "features": [{"type": "Feature", "geometry": {"type": "Point", "coordinates": [16.3836, 48.2056]}, "properties": {"type": "archive", "num": 9, "layername": "Archive", "mapid": "043-G-37384", "city": "Vienna", "instinfo": "1100"}}, {"type": "Feature", "geometry": {"type": "Point", "coordinates": [37.6268, 55.7515]}, "properties": {"type": "archive", "num": 7, "layername": "Archive", "mapid": "007-G-54635", "city": "Moscow", "instinfo": "0110"}}, {"type": "Feature", "geometry": {"type": "Point", "coordinates": [32.8511, 39.938]}, "properties": {"type": "archive", "num": 6, "layername": "Archive", "mapid": "090-G-15907", "city": "Ankara", "instinfo": "0100"}}, {"type": "Feature", "geometry": {"type": "Point", "coordinates": [14.4323, 50.0869]}, "properties": {"type": "archive", "num": 4, "layername": "Archive", "mapid": "420-G-36826", "city": "Prague", "instinfo": "1100"}}, {"type": "Feature", "geometry": {"type": "Point", "coordinates": [-3.6916, 40.4193]}, "properties": {"type": "archive", "num": 4, "layername": "Archive", "mapid": "034-G-07699", "city": "Madrid", "instinfo": "0100"}}, {"type": "Feature", "geometry": {"type": "Point", "coordinates": [-9.1487, 38.7483]}, "properties": {"type": "archive", "num": 4, "layername": "Archive", "mapid": "351-G-06667", "city": "Lisbon", "instinfo": "0100"}}, {"type": "Feature", "geometry": {"type": "Point", "coordinates": [24.9472, 60.2087]}, "properties": {"type": "archive", "num": 4, "layername": "Archive", "mapid": "358-G-51111", "city": "Helsinki", "instinfo": "0100"}}, {"type": "Feature", "geometry": {"type": "Point", "coordinates": [21.0155, 52.246]}, "properties": {"type": "archive", "num": 4, "layername": "Archive", "mapid": "048-G-43516", "city": "Warsaw", "instinfo": "0100"}}, {"type": "Feature", "geometry": {"type": "Point", "coordinates": [18.0687, 59.3171]}, "properties": {"type": "archive", "num": 4, "layername": "Archive", "mapid": "046-G-34237", "city": "Stockholm", "instinfo": "0101"}}]}