{"type": "FeatureCollection", "features": [{"type": "Feature", "geometry": {"type": "Point", "coordinates": [37.6268, 55.7515]}, "properties": {"type": "archive", "num": 8, "layername": "Archive", "mapid": "007-G-54635", "city": "Moscow", "instinfo": "0100"}}, {"type": "Feature", "geometry": {"type": "Point", "coordinates": [32.8511, 39.938]}, "properties": {"type": "archive", "num": 7, "layername": "Archive", "mapid": "090-G-15907", "city": "Ankara", "instinfo": "0100"}}, {"type": "Feature", "geometry": {"type": "Point", "coordinates": [-6.276, 53.3461]}, "properties": {"type": "archive", "num": 6, "layername": "Archive", "mapid": "353-G-01102", "city": "Dublin", "instinfo": "0100"}}, {"type": "Feature", "geometry": {"type": "Point", "coordinates": [16.3836, 48.2056]}, "properties": {"type": "archive", "num": 6, "layername": "Archive", "mapid": "043-G-37384", "city": "Vienna", "instinfo": "1100"}}, {"type": "Feature", "geometry": {"type": "Point", "coordinates": [23.3202, 42.6946]}, "properties": {"type": "archive", "num": 5, "layername": "Archive", "mapid": "359-G-14735", "city": "Sofia", "instinfo": "0100"}}, {"type": "Feature", "geometry": {"type": "Point", "coordinates": [14.4323, 50.0869]}, "properties": {"type": "archive", "num": 5, "layername": "Archive", "mapid": "420-G-36826", "city": "Prague", "instinfo": "0100"}}, {"type": "Feature", "geometry": {"type": "Point", "coordinates": [24.9472, 60.2087]}, "properties": {"type": "archive", "num": 4, "layername": "Archive", "mapid": "358-G-51111", "city": "Helsinki", "instinfo": "0100"}}, {"type": "Feature", "geometry": {"type": "Point", "coordinates": [24.7427, 59.4268]}, "properties": {"type": "archive", "num": 4, "layername": "Archive", "mapid": "372-G-51146", "city": "Tallinn", "instinfo": "1100"}}, {"type": "Feature", "geometry": {"type": "Point", "coordinates": [-3.6916, 40.4193]}, "properties": {"type": "archive", "num": 4, "layername": "Archive", "mapid": "034-G-07699", "city": "Madrid", "instinfo": "1101"}}, {"type": "Feature", "geometry": {"type": "Point", "coordinates": [18.0687, 59.3171]}, "properties": {"type": "archive", "num": 4, "layername": "Archive", "mapid": "046-G-34237", "city": "Stockholm", "instinfo": "0111"}}, {"type": "Feature", "geometry": {"type": "Point", "coordinates": [21.0155, 52.246]}, "properties": {"type": "archive", "num": 4, "layername": "Archive", "mapid": "048-G-43516", "city": "Warsaw", "instinfo": "0100"}}, {"type": "Feature", "geometry": {"type": "Point", "coordinates": [27.5553, 53.898]}, "properties": {"type": "archive", "num": 4, "layername": "Archive", "mapid": "375-G-49915", "city": "Minsk", "instinfo": "0100"}}, {"type": "Feature", "geometry": {"type": "Point", "coordinates": [30.3337, 59.9456]}, "properties": {"type": "archive", "num": 4, "layername": "Archive", "mapid": "007-G-52806", "city": "Saint Petersburg", "instinfo": "0100"}}, {"type": "Feature", "geometry": {"type": "Point", "coordinates": [19.0516, 47.491]}, "properties": {"type": "archive", "num": 4, "layername": "Archive", "mapid": "036-G-44485", "city": "Budapest", "instinfo": "1100"}}, {"type": "Feature", "geometry": {"type": "Point", "coordinates": [30.5235, 50.4418]}, "properties": {"type": "archive", "num": 4, "layername": "Archive", "mapid": "380-G-50468", "city": "Kiev", "instinfo": "0100"}}, {"type": "Feature", "geometry": {"type": "Point", "coordinates": [2.3482, 48.8581]}, "properties": {"type": "archive", "num": 4, "layername": "Archive", "mapid": "033-G-18561", "city": "Paris", "instinfo": "1111"}}, {"type": "Feature", "geometry": {"type": "Point", "coordinates": [-9.1487, 38.7483]}, "properties": {"type": "archive", "num": 4, "layername": "Archive", "mapid": "351-G-06667", "city": "Lisbon", "instinfo": "0100"}}]}