{"type": "FeatureCollection", "features": [{"type": "Feature", "geometry": {"type": "Point", "coordinates": [-0.0865, 51.5106]}, "properties": {"type": "association", "num": 6, "layername": "Association", "mapid": "044-G-05204", "city": "London", "instinfo": "0111"}}, {"type": "Feature", "geometry": {"type": "Point", "coordinates": [2.3482, 48.8581]}, "properties": {"type": "association", "num": 5, "layername": "Association", "mapid": "033-G-18561", "city": "Paris", "instinfo": "0111"}}, {"type": "Feature", "geometry": {"type": "Point", "coordinates": [7.4295, 46.9479]}, "properties": {"type": "association", "num": 3, "layername": "Association", "mapid": "041-G-26824", "city": "Bern", "instinfo": "0110"}}, {"type": "Feature", "geometry": {"type": "Point", "coordinates": [-3.2081, 55.9503]}, "properties": {"type": "association", "num": 3, "layername": "Association", "mapid": "044-G-02262", "city": "Edinburgh", "instinfo": "0111"}}, {"type": "Feature", "geometry": {"type": "Point", "coordinates": [8.6804, 50.1089]}, "properties": {"type": "association", "num": 2, "layername": "Association", "mapid": "049-G-28835", "city": "Frankfurt am Main", "instinfo": "0010"}}, {"type": "Feature", "geometry": {"type": "Point", "coordinates": [15.9724, 45.8135]}, "properties": {"type": "association", "num": 2, "layername": "Association", "mapid": "385-G-38250", "city": "Agram", "instinfo": "0011"}}, {"type": "Feature", "geometry": {"type": "Point", "coordinates": [-6.276, 53.3461]}, "properties": {"type": "association", "num": 2, "layername": "Association", "mapid": "353-G-01102", "city": "Dublin", "instinfo": "1110"}}, {"type": "Feature", "geometry": {"type": "Point", "coordinates": [4.4844, 52.1592]}, "properties": {"type": "association", "num": 2, "layername": "Association", "mapid": "031-G-21480", "city": "Leiden", "instinfo": "0010"}}, {"type": "Feature", "geometry": {"type": "Point", "coordinates": [24.0273, 49.8454]}, "properties": {"type": "association", "num": 2, "layername": "Association", "mapid": "380-G-48268", "city": "Lemberg", "instinfo": "0010"}}, {"type": "Feature", "geometry": {"type": "Point", "coordinates": [7.5895, 47.5495]}, "properties": {"type": "association", "num": 2, "layername": "Association", "mapid": "041-G-26913", "city": "Basel", "instinfo": "0111"}}, {"type": "Feature", "geometry": {"type": "Point", "coordinates": [13.4154, 52.5223]}, "properties": {"type": "association", "num": 2, "layername": "Association", "mapid": "049-G-39307", "city": "Berlin", "instinfo": "1110"}}, {"type": "Feature", "geometry": {"type": "Point", "coordinates": [12.5935, 55.6872]}, "properties": {"type": "association", "num": 2, "layername": "Association", "mapid": "045-G-39967", "city": "Copenhagen", "instinfo": "1011"}}, {"type": "Feature", "geometry": {"type": "Point", "coordinates": [4.6388, 52.3901]}, "properties": {"type": "association", "num": 2, "layername": "Association", "mapid": "031-G-21497", "city": "Haarlem", "instinfo": "0010"}}, {"type": "Feature", "geometry": {"type": "Point", "coordinates": [5.1082, 52.0973]}, "properties": {"type": "association", "num": 2, "layername": "Association", "mapid": "031-G-21668", "city": "Utrecht", "instinfo": "0010"}}, {"type": "Feature", "geometry": {"type": "Point", "coordinates": [1.2987, 52.6298]}, "properties": {"type": "association", "num": 1, "layername": "Association", "mapid": "044-G-20826", "city": "Norwich", "instinfo": "0010"}}, {"type": "Feature", "geometry": {"type": "Point", "coordinates": [1.1565, 52.059]}, "properties": {"type": "association", "num": 1, "layername": "Association", "mapid": "044-G-20845", "city": "Ipswich", "instinfo": "0010"}}, {"type": "Feature", "geometry": {"type": "Point", "coordinates": [3.2297, 51.2099]}, "properties": {"type": "association", "num": 1, "layername": "Association", "mapid": "032-G-21097", "city": "Brugge", "instinfo": "0010"}}, {"type": "Feature", "geometry": {"type": "Point", "coordinates": [3.6036, 51.493]}, "properties": {"type": "association", "num": 1, "layername": "Association", "mapid": "031-G-21204", "city": "Middelburg", "instinfo": "0010"}}, {"type": "Feature", "geometry": {"type": "Point", "coordinates": [4.3502, 50.8492]}, "properties": {"type": "association", "num": 1, "layername": "Association", "mapid": "032-G-21783", "city": "Brussels", "instinfo": "0111"}}, {"type": "Feature", "geometry": {"type": "Point", "coordinates": [5.3265, 51.6875]}, "properties": {"type": "association", "num": 1, "layername": "Association", "mapid": "031-G-22189", "city": "^'s-Hertogenbosch", "instinfo": "0010"}}, {"type": "Feature", "geometry": {"type": "Point", "coordinates": [5.7111, 50.859]}, "properties": {"type": "association", "num": 1, "layername": "Association", "mapid": "031-G-22451", "city": "Maastricht", "instinfo": "0010"}}, {"type": "Feature", "geometry": {"type": "Point", "coordinates": [5.9126, 51.9835]}, "properties": {"type": "association", "num": 1, "layername": "Association", "mapid": "031-G-22720", "city": "Arnhem", "instinfo": "0010"}}, {"type": "Feature", "geometry": {"type": "Point", "coordinates": [6.095, 52.508]}, "properties": {"type": "association", "num": 1, "layername": "Association", "mapid": "031-G-23156", "city": "Zwolle", "instinfo": "0010"}}, {"type": "Feature", "geometry": {"type": "Point", "coordinates": [5.7932, 53.1966]}, "properties": {"type": "association", "num": 1, "layername": "Association", "mapid": "031-G-23249", "city": "Leeuwarden", "instinfo": "0010"}}, {"type": "Feature", "geometry": {"type": "Point", "coordinates": [6.5596, 53.2217]}, "properties": {"type": "association", "num": 1, "layername": "Association", "mapid": "031-G-23311", "city": "Groningen", "instinfo": "0010"}}, {"type": "Feature", "geometry": {"type": "Point", "coordinates": [7.0858, 50.7367]}, "properties": {"type": "association", "num": 1, "layername": "Association", "mapid": "049-G-23718", "city": "Bonn", "instinfo": "0011"}}, {"type": "Feature", "geometry": {"type": "Point", "coordinates": [7.6293, 51.9641]}, "properties": {"type": "association", "num": 1, "layername": "Association", "mapid": "049-G-23959", "city": "M\u00fcnster", "instinfo": "0110"}}, {"type": "Feature", "geometry": {"type": "Point", "coordinates": [9.997, 53.5469]}, "properties": {"type": "association", "num": 1, "layername": "Association", "mapid": "049-G-24742", "city": "Hamburg", "instinfo": "0011"}}, {"type": "Feature", "geometry": {"type": "Point", "coordinates": [-3.3139, 57.6503]}, "properties": {"type": "association", "num": 1, "layername": "Association", "mapid": "044-G-00248", "city": "Elgin", "instinfo": "0010"}}, {"type": "Feature", "geometry": {"type": "Point", "coordinates": [10.1245, 54.3175]}, "properties": {"type": "association", "num": 1, "layername": "Association", "mapid": "049-G-24846", "city": "Kiel", "instinfo": "0011"}}, {"type": "Feature", "geometry": {"type": "Point", "coordinates": [9.509, 51.3186]}, "properties": {"type": "association", "num": 1, "layername": "Association", "mapid": "049-G-25206", "city": "Kassel", "instinfo": "0011"}}, {"type": "Feature", "geometry": {"type": "Point", "coordinates": [9.722, 52.3782]}, "properties": {"type": "association", "num": 1, "layername": "Association", "mapid": "049-G-25543", "city": "Hannover", "instinfo": "0011"}}, {"type": "Feature", "geometry": {"type": "Point", "coordinates": [5.7259, 45.1878]}, "properties": {"type": "association", "num": 1, "layername": "Association", "mapid": "033-G-26234", "city": "Grenoble", "instinfo": "0010"}}, {"type": "Feature", "geometry": {"type": "Point", "coordinates": [6.1404, 46.2034]}, "properties": {"type": "association", "num": 1, "layername": "Association", "mapid": "041-G-26330", "city": "Geneva", "instinfo": "0110"}}, {"type": "Feature", "geometry": {"type": "Point", "coordinates": [-2.2503, 53.4815]}, "properties": {"type": "association", "num": 1, "layername": "Association", "mapid": "044-G-02664", "city": "Manchester", "instinfo": "0010"}}, {"type": "Feature", "geometry": {"type": "Point", "coordinates": [6.624, 46.5216]}, "properties": {"type": "association", "num": 1, "layername": "Association", "mapid": "041-G-26677", "city": "Lausanne", "instinfo": "0110"}}, {"type": "Feature", "geometry": {"type": "Point", "coordinates": [7.1623, 46.8063]}, "properties": {"type": "association", "num": 1, "layername": "Association", "mapid": "041-G-26779", "city": "Fribourg", "instinfo": "0111"}}, {"type": "Feature", "geometry": {"type": "Point", "coordinates": [7.0776, 47.4226]}, "properties": {"type": "association", "num": 1, "layername": "Association", "mapid": "041-G-26878", "city": "Porrentruy", "instinfo": "0010"}}, {"type": "Feature", "geometry": {"type": "Point", "coordinates": [8.3036, 47.0476]}, "properties": {"type": "association", "num": 1, "layername": "Association", "mapid": "041-G-27122", "city": "Lucerne", "instinfo": "0110"}}, {"type": "Feature", "geometry": {"type": "Point", "coordinates": [6.452, 48.1761]}, "properties": {"type": "association", "num": 1, "layername": "Association", "mapid": "033-G-27447", "city": "Epinal", "instinfo": "0010"}}, {"type": "Feature", "geometry": {"type": "Point", "coordinates": [6.1259, 49.6107]}, "properties": {"type": "association", "num": 1, "layername": "Association", "mapid": "352-G-27521", "city": "Luxembourg", "instinfo": "0010"}}, {"type": "Feature", "geometry": {"type": "Point", "coordinates": [-1.5748, 54.7787]}, "properties": {"type": "association", "num": 1, "layername": "Association", "mapid": "044-G-02764", "city": "Durham", "instinfo": "0010"}}, {"type": "Feature", "geometry": {"type": "Point", "coordinates": [6.6577, 49.7633]}, "properties": {"type": "association", "num": 1, "layername": "Association", "mapid": "049-G-27824", "city": "Trier", "instinfo": "0010"}}, {"type": "Feature", "geometry": {"type": "Point", "coordinates": [6.9949, 49.2346]}, "properties": {"type": "association", "num": 1, "layername": "Association", "mapid": "049-G-27879", "city": "Saarbr\u00fccken", "instinfo": "0010"}}, {"type": "Feature", "geometry": {"type": "Point", "coordinates": [8.2608, 49.9996]}, "properties": {"type": "association", "num": 1, "layername": "Association", "mapid": "049-G-28126", "city": "Mainz", "instinfo": "0011"}}, {"type": "Feature", "geometry": {"type": "Point", "coordinates": [8.4286, 49.315]}, "properties": {"type": "association", "num": 1, "layername": "Association", "mapid": "049-G-28215", "city": "Speyer", "instinfo": "0010"}}, {"type": "Feature", "geometry": {"type": "Point", "coordinates": [8.2446, 48.7543]}, "properties": {"type": "association", "num": 1, "layername": "Association", "mapid": "049-G-28334", "city": "Baden", "instinfo": "0010"}}, {"type": "Feature", "geometry": {"type": "Point", "coordinates": [9.1825, 48.7758]}, "properties": {"type": "association", "num": 1, "layername": "Association", "mapid": "049-G-28575", "city": "Stuttgart", "instinfo": "0110"}}, {"type": "Feature", "geometry": {"type": "Point", "coordinates": [8.6524, 49.8729]}, "properties": {"type": "association", "num": 1, "layername": "Association", "mapid": "049-G-28753", "city": "Darmstadt", "instinfo": "0011"}}, {"type": "Feature", "geometry": {"type": "Point", "coordinates": [9.9353, 49.795]}, "properties": {"type": "association", "num": 1, "layername": "Association", "mapid": "049-G-29036", "city": "W\u00fcrzburg", "instinfo": "0010"}}, {"type": "Feature", "geometry": {"type": "Point", "coordinates": [10.5738, 49.3009]}, "properties": {"type": "association", "num": 1, "layername": "Association", "mapid": "049-G-29232", "city": "Ansbach", "instinfo": "0010"}}, {"type": "Feature", "geometry": {"type": "Point", "coordinates": [10.8929, 48.3694]}, "properties": {"type": "association", "num": 1, "layername": "Association", "mapid": "049-G-29497", "city": "Augsburg", "instinfo": "0010"}}, {"type": "Feature", "geometry": {"type": "Point", "coordinates": [8.5153, 47.1662]}, "properties": {"type": "association", "num": 1, "layername": "Association", "mapid": "041-G-29842", "city": "Zug", "instinfo": "0110"}}, {"type": "Feature", "geometry": {"type": "Point", "coordinates": [8.544, 47.378]}, "properties": {"type": "association", "num": 1, "layername": "Association", "mapid": "041-G-29851", "city": "Z\u00fcrich", "instinfo": "0110"}}, {"type": "Feature", "geometry": {"type": "Point", "coordinates": [9.5321, 46.8519]}, "properties": {"type": "association", "num": 1, "layername": "Association", "mapid": "041-G-30114", "city": "Chur", "instinfo": "0110"}}, {"type": "Feature", "geometry": {"type": "Point", "coordinates": [-3.4491, 56.3946]}, "properties": {"type": "association", "num": 1, "layername": "Association", "mapid": "044-G-00305", "city": "Perth", "instinfo": "0010"}}, {"type": "Feature", "geometry": {"type": "Point", "coordinates": [-1.6231, 54.9708]}, "properties": {"type": "association", "num": 1, "layername": "Association", "mapid": "044-G-03097", "city": "Newcastle upon Tyne", "instinfo": "0010"}}, {"type": "Feature", "geometry": {"type": "Point", "coordinates": [10.7507, 59.9113]}, "properties": {"type": "association", "num": 1, "layername": "Association", "mapid": "047-G-31801", "city": "Christiania", "instinfo": "0110"}}, {"type": "Feature", "geometry": {"type": "Point", "coordinates": [18.0687, 59.3171]}, "properties": {"type": "association", "num": 1, "layername": "Association", "mapid": "046-G-34237", "city": "Stockholm", "instinfo": "1111"}}, {"type": "Feature", "geometry": {"type": "Point", "coordinates": [11.5703, 48.1383]}, "properties": {"type": "association", "num": 1, "layername": "Association", "mapid": "049-G-35406", "city": "Munich", "instinfo": "1111"}}, {"type": "Feature", "geometry": {"type": "Point", "coordinates": [12.1585, 48.5386]}, "properties": {"type": "association", "num": 1, "layername": "Association", "mapid": "049-G-35521", "city": "Landshut", "instinfo": "0010"}}, {"type": "Feature", "geometry": {"type": "Point", "coordinates": [12.0893, 49.0153]}, "properties": {"type": "association", "num": 1, "layername": "Association", "mapid": "049-G-35540", "city": "Regensburg", "instinfo": "0010"}}, {"type": "Feature", "geometry": {"type": "Point", "coordinates": [11.5718, 49.9455]}, "properties": {"type": "association", "num": 1, "layername": "Association", "mapid": "049-G-35751", "city": "Bayreuth", "instinfo": "0010"}}, {"type": "Feature", "geometry": {"type": "Point", "coordinates": [14.2893, 48.3025]}, "properties": {"type": "association", "num": 1, "layername": "Association", "mapid": "043-G-36468", "city": "Linz", "instinfo": "0011"}}, {"type": "Feature", "geometry": {"type": "Point", "coordinates": [14.5052, 46.0535]}, "properties": {"type": "association", "num": 1, "layername": "Association", "mapid": "386-G-37529", "city": "Laibach", "instinfo": "0011"}}, {"type": "Feature", "geometry": {"type": "Point", "coordinates": [14.3127, 46.6245]}, "properties": {"type": "association", "num": 1, "layername": "Association", "mapid": "043-G-37711", "city": "Klagenfurt", "instinfo": "0010"}}, {"type": "Feature", "geometry": {"type": "Point", "coordinates": [-2.7471, 52.7062]}, "properties": {"type": "association", "num": 1, "layername": "Association", "mapid": "044-G-03775", "city": "Shrewsbury", "instinfo": "0010"}}, {"type": "Feature", "geometry": {"type": "Point", "coordinates": [15.4226, 47.0629]}, "properties": {"type": "association", "num": 1, "layername": "Association", "mapid": "043-G-37954", "city": "Graz", "instinfo": "0011"}}, {"type": "Feature", "geometry": {"type": "Point", "coordinates": [11.5917, 50.9306]}, "properties": {"type": "association", "num": 1, "layername": "Association", "mapid": "049-G-38436", "city": "Jena", "instinfo": "0010"}}, {"type": "Feature", "geometry": {"type": "Point", "coordinates": [11.9841, 51.475]}, "properties": {"type": "association", "num": 1, "layername": "Association", "mapid": "049-G-38608", "city": "Halle", "instinfo": "0010"}}, {"type": "Feature", "geometry": {"type": "Point", "coordinates": [12.3762, 51.3477]}, "properties": {"type": "association", "num": 1, "layername": "Association", "mapid": "049-G-38685", "city": "Leipzig", "instinfo": "1010"}}, {"type": "Feature", "geometry": {"type": "Point", "coordinates": [13.7325, 51.0515]}, "properties": {"type": "association", "num": 1, "layername": "Association", "mapid": "049-G-39679", "city": "Dresden", "instinfo": "0111"}}, {"type": "Feature", "geometry": {"type": "Point", "coordinates": [11.4011, 53.6353]}, "properties": {"type": "association", "num": 1, "layername": "Association", "mapid": "049-G-39717", "city": "Schwerin", "instinfo": "0010"}}, {"type": "Feature", "geometry": {"type": "Point", "coordinates": [13.3829, 54.0924]}, "properties": {"type": "association", "num": 1, "layername": "Association", "mapid": "049-G-40219", "city": "Greifswald", "instinfo": "0010"}}, {"type": "Feature", "geometry": {"type": "Point", "coordinates": [14.546, 53.4242]}, "properties": {"type": "association", "num": 1, "layername": "Association", "mapid": "048-G-40891", "city": "Stettin", "instinfo": "0011"}}, {"type": "Feature", "geometry": {"type": "Point", "coordinates": [17.0214, 51.1112]}, "properties": {"type": "association", "num": 1, "layername": "Association", "mapid": "048-G-41404", "city": "Breslau", "instinfo": "0110"}}, {"type": "Feature", "geometry": {"type": "Point", "coordinates": [20.5154, 54.7104]}, "properties": {"type": "association", "num": 1, "layername": "Association", "mapid": "007-G-42673", "city": "K\u00f6nigsberg", "instinfo": "0110"}}, {"type": "Feature", "geometry": {"type": "Point", "coordinates": [-2.0963, 57.1478]}, "properties": {"type": "association", "num": 1, "layername": "Association", "mapid": "044-G-00435", "city": "Aberdeen", "instinfo": "0010"}}, {"type": "Feature", "geometry": {"type": "Point", "coordinates": [21.0155, 52.246]}, "properties": {"type": "association", "num": 1, "layername": "Association", "mapid": "048-G-43516", "city": "Warsaw", "instinfo": "0010"}}, {"type": "Feature", "geometry": {"type": "Point", "coordinates": [19.0516, 47.491]}, "properties": {"type": "association", "num": 1, "layername": "Association", "mapid": "036-G-44485", "city": "Buda-Pest", "instinfo": "1111"}}, {"type": "Feature", "geometry": {"type": "Point", "coordinates": [24.141, 45.7911]}, "properties": {"type": "association", "num": 1, "layername": "Association", "mapid": "040-G-47969", "city": "Hermannstadt", "instinfo": "0011"}}, {"type": "Feature", "geometry": {"type": "Point", "coordinates": [-0.8059, 51.8175]}, "properties": {"type": "association", "num": 1, "layername": "Association", "mapid": "044-G-04949", "city": "Aylesbury", "instinfo": "0010"}}, {"type": "Feature", "geometry": {"type": "Point", "coordinates": [30.744, 46.4726]}, "properties": {"type": "association", "num": 1, "layername": "Association", "mapid": "380-G-50333", "city": "Odessa", "instinfo": "0011"}}, {"type": "Feature", "geometry": {"type": "Point", "coordinates": [30.5235, 50.4418]}, "properties": {"type": "association", "num": 1, "layername": "Association", "mapid": "380-G-50468", "city": "Kiev", "instinfo": "0010"}}, {"type": "Feature", "geometry": {"type": "Point", "coordinates": [24.1165, 56.9463]}, "properties": {"type": "association", "num": 1, "layername": "Association", "mapid": "371-G-50841", "city": "Riga", "instinfo": "0011"}}, {"type": "Feature", "geometry": {"type": "Point", "coordinates": [24.7427, 59.4268]}, "properties": {"type": "association", "num": 1, "layername": "Association", "mapid": "372-G-51146", "city": "Revel", "instinfo": "0010"}}, {"type": "Feature", "geometry": {"type": "Point", "coordinates": [26.7231, 58.3738]}, "properties": {"type": "association", "num": 1, "layername": "Association", "mapid": "372-G-51512", "city": "Dorpat", "instinfo": "0010"}}, {"type": "Feature", "geometry": {"type": "Point", "coordinates": [30.3337, 59.9456]}, "properties": {"type": "association", "num": 1, "layername": "Association", "mapid": "007-G-52806", "city": "Saint Petersburg", "instinfo": "1011"}}, {"type": "Feature", "geometry": {"type": "Point", "coordinates": [37.6268, 55.7515]}, "properties": {"type": "association", "num": 1, "layername": "Association", "mapid": "007-G-54635", "city": "Moscow", "instinfo": "0010"}}, {"type": "Feature", "geometry": {"type": "Point", "coordinates": [-5.0567, 50.2643]}, "properties": {"type": "association", "num": 1, "layername": "Association", "mapid": "044-G-05497", "city": "Truro", "instinfo": "0011"}}, {"type": "Feature", "geometry": {"type": "Point", "coordinates": [-0.017777777777781, 50.8755555555555]}, "properties": {"type": "association", "num": 1, "layername": "Association", "mapid": "044-T-90062", "city": "Lewes", "instinfo": "0010"}}, {"type": "Feature", "geometry": {"type": "Point", "coordinates": [-1.6715, 48.1039]}, "properties": {"type": "association", "num": 1, "layername": "Association", "mapid": "033-G-05784", "city": "Rennes", "instinfo": "0010"}}, {"type": "Feature", "geometry": {"type": "Point", "coordinates": [-0.3585, 49.1848]}, "properties": {"type": "association", "num": 1, "layername": "Association", "mapid": "033-G-05954", "city": "Caen", "instinfo": "0010"}}, {"type": "Feature", "geometry": {"type": "Point", "coordinates": [-3.6916, 40.4193]}, "properties": {"type": "association", "num": 1, "layername": "Association", "mapid": "034-G-07699", "city": "Madrid", "instinfo": "1111"}}, {"type": "Feature", "geometry": {"type": "Point", "coordinates": [-7.2493, 52.6597]}, "properties": {"type": "association", "num": 1, "layername": "Association", "mapid": "353-G-01003", "city": "Kilkenny", "instinfo": "0010"}}, {"type": "Feature", "geometry": {"type": "Point", "coordinates": [4.818, 43.9517]}, "properties": {"type": "association", "num": 1, "layername": "Association", "mapid": "033-G-09835", "city": "Avignon", "instinfo": "0010"}}, {"type": "Feature", "geometry": {"type": "Point", "coordinates": [-4.1351, 53.2248]}, "properties": {"type": "association", "num": 1, "layername": "Association", "mapid": "044-G-01369", "city": "Bangor", "instinfo": "0010"}}, {"type": "Feature", "geometry": {"type": "Point", "coordinates": [-2.9821, 53.4105]}, "properties": {"type": "association", "num": 1, "layername": "Association", "mapid": "044-G-01612", "city": "Liverpool", "instinfo": "0010"}}, {"type": "Feature", "geometry": {"type": "Point", "coordinates": [-2.8941, 53.1976]}, "properties": {"type": "association", "num": 1, "layername": "Association", "mapid": "044-G-01650", "city": "Chester", "instinfo": "0010"}}, {"type": "Feature", "geometry": {"type": "Point", "coordinates": [-3.0965, 51.0195]}, "properties": {"type": "association", "num": 1, "layername": "Association", "mapid": "044-G-01702", "city": "Taunton", "instinfo": "0011"}}, {"type": "Feature", "geometry": {"type": "Point", "coordinates": [0.7315, 47.3677]}, "properties": {"type": "association", "num": 1, "layername": "Association", "mapid": "033-G-17610", "city": "Saint-Avertin", "instinfo": "0010"}}, {"type": "Feature", "geometry": {"type": "Point", "coordinates": [1.0898, 49.4385]}, "properties": {"type": "association", "num": 1, "layername": "Association", "mapid": "033-G-18185", "city": "Rouen", "instinfo": "0010"}}, {"type": "Feature", "geometry": {"type": "Point", "coordinates": [4.0809, 48.288]}, "properties": {"type": "association", "num": 1, "layername": "Association", "mapid": "033-G-18869", "city": "Troyes", "instinfo": "0010"}}, {"type": "Feature", "geometry": {"type": "Point", "coordinates": [3.388, 50.6054]}, "properties": {"type": "association", "num": 1, "layername": "Association", "mapid": "032-G-19011", "city": "Tournai", "instinfo": "0010"}}, {"type": "Feature", "geometry": {"type": "Point", "coordinates": [3.9514, 50.4542]}, "properties": {"type": "association", "num": 1, "layername": "Association", "mapid": "032-G-19079", "city": "Mons", "instinfo": "0010"}}, {"type": "Feature", "geometry": {"type": "Point", "coordinates": [3.6225, 49.5656]}, "properties": {"type": "association", "num": 1, "layername": "Association", "mapid": "033-G-19139", "city": "Laon", "instinfo": "0010"}}, {"type": "Feature", "geometry": {"type": "Point", "coordinates": [5.5586, 46.673]}, "properties": {"type": "association", "num": 1, "layername": "Association", "mapid": "033-G-20188", "city": "Lons-le-Saunier", "instinfo": "0010"}}, {"type": "Feature", "geometry": {"type": "Point", "coordinates": [5.2315, 46.2018]}, "properties": {"type": "association", "num": 1, "layername": "Association", "mapid": "033-G-20309", "city": "Bourg-en-Bresse", "instinfo": "0010"}}, {"type": "Feature", "geometry": {"type": "Point", "coordinates": [0.1291, 52.2081]}, "properties": {"type": "association", "num": 1, "layername": "Association", "mapid": "044-G-20760", "city": "Cambridge", "instinfo": "0010"}}]}