{"type": "FeatureCollection", "crs": {"type": "name", "properties": {"name": "urn:ogc:def:crs:OGC:1.3:CRS84"}}, "features": [{"type": "Feature", "properties": {"city": "London", "mapid": "044-G-05204", "layername": "Association", "num": 9, "type": "association"}, "geometry": {"type": "Point", "coordinates": [-0.0865, 51.5106]}}, {"type": "Feature", "properties": {"city": "Paris", "mapid": "033-G-18561", "layername": "Association", "num": 7, "type": "association"}, "geometry": {"type": "Point", "coordinates": [2.3482, 48.8581]}}, {"type": "Feature", "properties": {"city": "Berlin", "mapid": "049-G-39307", "layername": "Association", "num": 4, "type": "association"}, "geometry": {"type": "Point", "coordinates": [13.4154, 52.5223]}}, {"type": "Feature", "properties": {"city": "Prague", "mapid": "420-G-36826", "layername": "Association", "num": 3, "type": "association"}, "geometry": {"type": "Point", "coordinates": [14.4323, 50.0869]}}, {"type": "Feature", "properties": {"city": "Edinburgh", "mapid": "044-G-02262", "layername": "Association", "num": 3, "type": "association"}, "geometry": {"type": "Point", "coordinates": [-3.2081, 55.9503]}}, {"type": "Feature", "properties": {"city": "Vienna", "mapid": "043-G-37384", "layername": "Association", "num": 3, "type": "association"}, "geometry": {"type": "Point", "coordinates": [16.3836, 48.2056]}}, {"type": "Feature", "properties": {"city": "Agram", "mapid": "385-G-38250", "layername": "Association", "num": 3, "type": "association"}, "geometry": {"type": "Point", "coordinates": [15.9724, 45.8135]}}, {"type": "Feature", "properties": {"city": "Durham", "mapid": "044-G-02764", "layername": "Association", "num": 2, "type": "association"}, "geometry": {"type": "Point", "coordinates": [-1.5748, 54.7787]}}, {"type": "Feature", "properties": {"city": "Bucharest", "mapid": "040-G-15326", "layername": "Association", "num": 2, "type": "association"}, "geometry": {"type": "Point", "coordinates": [26.0995, 44.4235]}}, {"type": "Feature", "properties": {"city": "Rouen", "mapid": "033-G-18185", "layername": "Association", "num": 2, "type": "association"}, "geometry": {"type": "Point", "coordinates": [1.0898, 49.4385]}}, {"type": "Feature", "properties": {"city": "Leiden", "mapid": "031-G-21480", "layername": "Association", "num": 2, "type": "association"}, "geometry": {"type": "Point", "coordinates": [4.4844, 52.1592]}}, {"type": "Feature", "properties": {"city": "K\u00f6nigsberg", "mapid": "007-G-42673", "layername": "Association", "num": 2, "type": "association"}, "geometry": {"type": "Point", "coordinates": [20.5154, 54.7104]}}, {"type": "Feature", "properties": {"city": "Saint-Brieuc", "mapid": "033-G-05708", "layername": "Association", "num": 2, "type": "association"}, "geometry": {"type": "Point", "coordinates": [-2.7627, 48.5112]}}, {"type": "Feature", "properties": {"city": "Haarlem", "mapid": "031-G-21497", "layername": "Association", "num": 2, "type": "association"}, "geometry": {"type": "Point", "coordinates": [4.6388, 52.3901]}}, {"type": "Feature", "properties": {"city": "Moscow", "mapid": "007-G-54635", "layername": "Association", "num": 2, "type": "association"}, "geometry": {"type": "Point", "coordinates": [37.6268, 55.7515]}}, {"type": "Feature", "properties": {"city": "Bern", "mapid": "041-G-26824", "layername": "Association", "num": 2, "type": "association"}, "geometry": {"type": "Point", "coordinates": [7.4295, 46.9479]}}, {"type": "Feature", "properties": {"city": "Epinal", "mapid": "033-G-27447", "layername": "Association", "num": 2, "type": "association"}, "geometry": {"type": "Point", "coordinates": [6.452, 48.1761]}}, {"type": "Feature", "properties": {"city": "Christiania", "mapid": "047-G-31801", "layername": "Association", "num": 2, "type": "association"}, "geometry": {"type": "Point", "coordinates": [10.7507, 59.9113]}}, {"type": "Feature", "properties": {"city": "Laibach", "mapid": "386-G-37529", "layername": "Association", "num": 2, "type": "association"}, "geometry": {"type": "Point", "coordinates": [14.5052, 46.0535]}}, {"type": "Feature", "properties": {"city": "Utrecht", "mapid": "031-G-21668", "layername": "Association", "num": 2, "type": "association"}, "geometry": {"type": "Point", "coordinates": [5.1082, 52.0973]}}, {"type": "Feature", "properties": {"city": "Hermannstadt", "mapid": "040-G-47969", "layername": "Association", "num": 2, "type": "association"}, "geometry": {"type": "Point", "coordinates": [24.141, 45.7911]}}, {"type": "Feature", "properties": {"city": "Lemberg", "mapid": "380-G-48268", "layername": "Association", "num": 2, "type": "association"}, "geometry": {"type": "Point", "coordinates": [24.0273, 49.8454]}}, {"type": "Feature", "properties": {"city": "Brussels", "mapid": "032-G-21783", "layername": "Association", "num": 2, "type": "association"}, "geometry": {"type": "Point", "coordinates": [4.3502, 50.8492]}}, {"type": "Feature", "properties": {"city": "Bordeaux", "mapid": "033-G-08122", "layername": "Association", "num": 2, "type": "association"}, "geometry": {"type": "Point", "coordinates": [-0.5731, 44.8312]}}, {"type": "Feature", "properties": {"city": "Poitiers", "mapid": "033-G-17479", "layername": "Association", "num": 2, "type": "association"}, "geometry": {"type": "Point", "coordinates": [0.3503, 46.5784]}}, {"type": "Feature", "properties": {"city": "Saint Petersburg", "mapid": "007-G-52806", "layername": "Association", "num": 2, "type": "association"}, "geometry": {"type": "Point", "coordinates": [30.3337, 59.9456]}}, {"type": "Feature", "properties": {"city": "Bourges", "mapid": "033-G-17783", "layername": "Association", "num": 2, "type": "association"}, "geometry": {"type": "Point", "coordinates": [2.404, 47.0846]}}, {"type": "Feature", "properties": {"city": "Kiev", "mapid": "380-G-50468", "layername": "Association", "num": 2, "type": "association"}, "geometry": {"type": "Point", "coordinates": [30.5235, 50.4418]}}, {"type": "Feature", "properties": {"city": "Riga", "mapid": "371-G-50841", "layername": "Association", "num": 2, "type": "association"}, "geometry": {"type": "Point", "coordinates": [24.1165, 56.9463]}}, {"type": "Feature", "properties": {"city": "Helsingfors", "mapid": "358-G-51111", "layername": "Association", "num": 2, "type": "association"}, "geometry": {"type": "Point", "coordinates": [24.9472, 60.2087]}}, {"type": "Feature", "properties": {"city": "Dresden", "mapid": "049-G-39679", "layername": "Association", "num": 2, "type": "association"}, "geometry": {"type": "Point", "coordinates": [13.7325, 51.0515]}}, {"type": "Feature", "properties": {"city": "Nancy", "mapid": "033-G-27377", "layername": "Association", "num": 2, "type": "association"}, "geometry": {"type": "Point", "coordinates": [6.1811, 48.6926]}}, {"type": "Feature", "properties": {"city": "Copenhagen", "mapid": "045-G-39967", "layername": "Association", "num": 2, "type": "association"}, "geometry": {"type": "Point", "coordinates": [12.5935, 55.6872]}}, {"type": "Feature", "properties": {"city": "Lons-le-Saunier", "mapid": "033-G-20188", "layername": "Association", "num": 1, "type": "association"}, "geometry": {"type": "Point", "coordinates": [5.5586, 46.673]}}, {"type": "Feature", "properties": {"city": "Bourg-en-Bresse", "mapid": "033-G-20309", "layername": "Association", "num": 1, "type": "association"}, "geometry": {"type": "Point", "coordinates": [5.2315, 46.2018]}}, {"type": "Feature", "properties": {"city": "Maidstone", "mapid": "044-G-20479", "layername": "Association", "num": 1, "type": "association"}, "geometry": {"type": "Point", "coordinates": [0.518, 51.2738]}}, {"type": "Feature", "properties": {"city": "Colchester", "mapid": "044-G-20643", "layername": "Association", "num": 1, "type": "association"}, "geometry": {"type": "Point", "coordinates": [0.896, 51.8871]}}, {"type": "Feature", "properties": {"city": "Cambridge", "mapid": "044-G-20760", "layername": "Association", "num": 1, "type": "association"}, "geometry": {"type": "Point", "coordinates": [0.1291, 52.2081]}}, {"type": "Feature", "properties": {"city": "Norwich", "mapid": "044-G-20826", "layername": "Association", "num": 1, "type": "association"}, "geometry": {"type": "Point", "coordinates": [1.2987, 52.6298]}}, {"type": "Feature", "properties": {"city": "Ipswich", "mapid": "044-G-20845", "layername": "Association", "num": 1, "type": "association"}, "geometry": {"type": "Point", "coordinates": [1.1565, 52.059]}}, {"type": "Feature", "properties": {"city": "Saint-Omer", "mapid": "033-G-20920", "layername": "Association", "num": 1, "type": "association"}, "geometry": {"type": "Point", "coordinates": [2.2531, 50.7448]}}, {"type": "Feature", "properties": {"city": "Dumfries", "mapid": "044-G-02105", "layername": "Association", "num": 1, "type": "association"}, "geometry": {"type": "Point", "coordinates": [-3.6101, 55.0708]}}, {"type": "Feature", "properties": {"city": "Brugge", "mapid": "032-G-21097", "layername": "Association", "num": 1, "type": "association"}, "geometry": {"type": "Point", "coordinates": [3.2297, 51.2099]}}, {"type": "Feature", "properties": {"city": "Middelburg", "mapid": "031-G-21204", "layername": "Association", "num": 1, "type": "association"}, "geometry": {"type": "Point", "coordinates": [3.6036, 51.493]}}, {"type": "Feature", "properties": {"city": "Amsterdam", "mapid": "031-G-21578", "layername": "Association", "num": 1, "type": "association"}, "geometry": {"type": "Point", "coordinates": [4.8977, 52.3788]}}, {"type": "Feature", "properties": {"city": "^'s-Hertogenbosch", "mapid": "031-G-22189", "layername": "Association", "num": 1, "type": "association"}, "geometry": {"type": "Point", "coordinates": [5.3265, 51.6875]}}, {"type": "Feature", "properties": {"city": "Maastricht", "mapid": "031-G-22451", "layername": "Association", "num": 1, "type": "association"}, "geometry": {"type": "Point", "coordinates": [5.7111, 50.859]}}, {"type": "Feature", "properties": {"city": "Arnhem", "mapid": "031-G-22720", "layername": "Association", "num": 1, "type": "association"}, "geometry": {"type": "Point", "coordinates": [5.9126, 51.9835]}}, {"type": "Feature", "properties": {"city": "Cologne", "mapid": "049-G-23062", "layername": "Association", "num": 1, "type": "association"}, "geometry": {"type": "Point", "coordinates": [6.9599, 50.9351]}}, {"type": "Feature", "properties": {"city": "Zwolle", "mapid": "031-G-23156", "layername": "Association", "num": 1, "type": "association"}, "geometry": {"type": "Point", "coordinates": [6.095, 52.508]}}, {"type": "Feature", "properties": {"city": "Leeuwarden", "mapid": "031-G-23249", "layername": "Association", "num": 1, "type": "association"}, "geometry": {"type": "Point", "coordinates": [5.7932, 53.1966]}}, {"type": "Feature", "properties": {"city": "Groningen", "mapid": "031-G-23311", "layername": "Association", "num": 1, "type": "association"}, "geometry": {"type": "Point", "coordinates": [6.5596, 53.2217]}}, {"type": "Feature", "properties": {"city": "Oldenburg", "mapid": "049-G-23621", "layername": "Association", "num": 1, "type": "association"}, "geometry": {"type": "Point", "coordinates": [8.2081, 53.1412]}}, {"type": "Feature", "properties": {"city": "Bonn", "mapid": "049-G-23718", "layername": "Association", "num": 1, "type": "association"}, "geometry": {"type": "Point", "coordinates": [7.0858, 50.7367]}}, {"type": "Feature", "properties": {"city": "M\u00fcnster", "mapid": "049-G-23959", "layername": "Association", "num": 1, "type": "association"}, "geometry": {"type": "Point", "coordinates": [7.6293, 51.9641]}}, {"type": "Feature", "properties": {"city": "\u00c3\u2026rhus", "mapid": "045-G-24694", "layername": "Association", "num": 1, "type": "association"}, "geometry": {"type": "Point", "coordinates": [10.205, 56.1522]}}, {"type": "Feature", "properties": {"city": "Hamburg", "mapid": "049-G-24742", "layername": "Association", "num": 1, "type": "association"}, "geometry": {"type": "Point", "coordinates": [9.997, 53.5469]}}, {"type": "Feature", "properties": {"city": "Elgin", "mapid": "044-G-00248", "layername": "Association", "num": 1, "type": "association"}, "geometry": {"type": "Point", "coordinates": [-3.3139, 57.6503]}}, {"type": "Feature", "properties": {"city": "Kiel", "mapid": "049-G-24846", "layername": "Association", "num": 1, "type": "association"}, "geometry": {"type": "Point", "coordinates": [10.1245, 54.3175]}}, {"type": "Feature", "properties": {"city": "L\u00fcbeck", "mapid": "049-G-24897", "layername": "Association", "num": 1, "type": "association"}, "geometry": {"type": "Point", "coordinates": [10.6936, 53.8759]}}, {"type": "Feature", "properties": {"city": "Kassel", "mapid": "049-G-25206", "layername": "Association", "num": 1, "type": "association"}, "geometry": {"type": "Point", "coordinates": [9.509, 51.3186]}}, {"type": "Feature", "properties": {"city": "Bremen", "mapid": "049-G-25383", "layername": "Association", "num": 1, "type": "association"}, "geometry": {"type": "Point", "coordinates": [8.8033, 53.0854]}}, {"type": "Feature", "properties": {"city": "Hannover", "mapid": "049-G-25543", "layername": "Association", "num": 1, "type": "association"}, "geometry": {"type": "Point", "coordinates": [9.722, 52.3782]}}, {"type": "Feature", "properties": {"city": "Grenoble", "mapid": "033-G-26234", "layername": "Association", "num": 1, "type": "association"}, "geometry": {"type": "Point", "coordinates": [5.7259, 45.1878]}}, {"type": "Feature", "properties": {"city": "Chamb\u00e9ry", "mapid": "033-G-26267", "layername": "Association", "num": 1, "type": "association"}, "geometry": {"type": "Point", "coordinates": [5.9193, 45.5683]}}, {"type": "Feature", "properties": {"city": "Geneva", "mapid": "041-G-26330", "layername": "Association", "num": 1, "type": "association"}, "geometry": {"type": "Point", "coordinates": [6.1404, 46.2034]}}, {"type": "Feature", "properties": {"city": "Annecy", "mapid": "033-G-26383", "layername": "Association", "num": 1, "type": "association"}, "geometry": {"type": "Point", "coordinates": [6.1258, 45.9057]}}, {"type": "Feature", "properties": {"city": "Besan\u00e7on", "mapid": "033-G-26567", "layername": "Association", "num": 1, "type": "association"}, "geometry": {"type": "Point", "coordinates": [6.0239, 47.2452]}}, {"type": "Feature", "properties": {"city": "Manchester", "mapid": "044-G-02664", "layername": "Association", "num": 1, "type": "association"}, "geometry": {"type": "Point", "coordinates": [-2.2503, 53.4815]}}, {"type": "Feature", "properties": {"city": "Lausanne", "mapid": "041-G-26677", "layername": "Association", "num": 1, "type": "association"}, "geometry": {"type": "Point", "coordinates": [6.624, 46.5216]}}, {"type": "Feature", "properties": {"city": "Neuch\u00e2tel", "mapid": "041-G-26718", "layername": "Association", "num": 1, "type": "association"}, "geometry": {"type": "Point", "coordinates": [6.9324, 46.9915]}}, {"type": "Feature", "properties": {"city": "Fribourg", "mapid": "041-G-26779", "layername": "Association", "num": 1, "type": "association"}, "geometry": {"type": "Point", "coordinates": [7.1623, 46.8063]}}, {"type": "Feature", "properties": {"city": "Porrentruy", "mapid": "041-G-26878", "layername": "Association", "num": 1, "type": "association"}, "geometry": {"type": "Point", "coordinates": [7.0776, 47.4226]}}, {"type": "Feature", "properties": {"city": "Basel", "mapid": "041-G-26913", "layername": "Association", "num": 1, "type": "association"}, "geometry": {"type": "Point", "coordinates": [7.5895, 47.5495]}}, {"type": "Feature", "properties": {"city": "Lucerne", "mapid": "041-G-27122", "layername": "Association", "num": 1, "type": "association"}, "geometry": {"type": "Point", "coordinates": [8.3036, 47.0476]}}, {"type": "Feature", "properties": {"city": "Metz", "mapid": "033-G-27350", "layername": "Association", "num": 1, "type": "association"}, "geometry": {"type": "Point", "coordinates": [6.1835, 49.117]}}, {"type": "Feature", "properties": {"city": "Saint-Di\u00e9", "mapid": "033-G-27452", "layername": "Association", "num": 1, "type": "association"}, "geometry": {"type": "Point", "coordinates": [6.9486, 48.2836]}}, {"type": "Feature", "properties": {"city": "Trier", "mapid": "049-G-27824", "layername": "Association", "num": 1, "type": "association"}, "geometry": {"type": "Point", "coordinates": [6.6577, 49.7633]}}, {"type": "Feature", "properties": {"city": "Saarbr\u00fccken", "mapid": "049-G-27879", "layername": "Association", "num": 1, "type": "association"}, "geometry": {"type": "Point", "coordinates": [6.9949, 49.2346]}}, {"type": "Feature", "properties": {"city": "Mainz", "mapid": "049-G-28126", "layername": "Association", "num": 1, "type": "association"}, "geometry": {"type": "Point", "coordinates": [8.2608, 49.9996]}}, {"type": "Feature", "properties": {"city": "Huddersfield", "mapid": "044-G-02820", "layername": "Association", "num": 1, "type": "association"}, "geometry": {"type": "Point", "coordinates": [-1.7883, 53.6511]}}, {"type": "Feature", "properties": {"city": "Speyer", "mapid": "049-G-28215", "layername": "Association", "num": 1, "type": "association"}, "geometry": {"type": "Point", "coordinates": [8.4286, 49.315]}}, {"type": "Feature", "properties": {"city": "Strasbourg", "mapid": "033-G-28277", "layername": "Association", "num": 1, "type": "association"}, "geometry": {"type": "Point", "coordinates": [7.7308, 48.5791]}}, {"type": "Feature", "properties": {"city": "Baden", "mapid": "049-G-28334", "layername": "Association", "num": 1, "type": "association"}, "geometry": {"type": "Point", "coordinates": [8.2446, 48.7543]}}, {"type": "Feature", "properties": {"city": "Stuttgart", "mapid": "049-G-28575", "layername": "Association", "num": 1, "type": "association"}, "geometry": {"type": "Point", "coordinates": [9.1825, 48.7758]}}, {"type": "Feature", "properties": {"city": "Sigmaringen", "mapid": "049-G-28646", "layername": "Association", "num": 1, "type": "association"}, "geometry": {"type": "Point", "coordinates": [9.2146, 48.0903]}}, {"type": "Feature", "properties": {"city": "Darmstadt", "mapid": "049-G-28753", "layername": "Association", "num": 1, "type": "association"}, "geometry": {"type": "Point", "coordinates": [8.6524, 49.8729]}}, {"type": "Feature", "properties": {"city": "Frankfurt am Main", "mapid": "049-G-28835", "layername": "Association", "num": 1, "type": "association"}, "geometry": {"type": "Point", "coordinates": [8.6804, 50.1089]}}, {"type": "Feature", "properties": {"city": "W\u00fcrzburg", "mapid": "049-G-29036", "layername": "Association", "num": 1, "type": "association"}, "geometry": {"type": "Point", "coordinates": [9.9353, 49.795]}}, {"type": "Feature", "properties": {"city": "Ansbach", "mapid": "049-G-29232", "layername": "Association", "num": 1, "type": "association"}, "geometry": {"type": "Point", "coordinates": [10.5738, 49.3009]}}, {"type": "Feature", "properties": {"city": "N\u00fcrnberg", "mapid": "049-G-29290", "layername": "Association", "num": 1, "type": "association"}, "geometry": {"type": "Point", "coordinates": [11.0804, 49.4468]}}, {"type": "Feature", "properties": {"city": "Augsburg", "mapid": "049-G-29497", "layername": "Association", "num": 1, "type": "association"}, "geometry": {"type": "Point", "coordinates": [10.8929, 48.3694]}}, {"type": "Feature", "properties": {"city": "Milan", "mapid": "039-G-29741", "layername": "Association", "num": 1, "type": "association"}, "geometry": {"type": "Point", "coordinates": [9.1696, 45.4752]}}, {"type": "Feature", "properties": {"city": "Zug", "mapid": "041-G-29842", "layername": "Association", "num": 1, "type": "association"}, "geometry": {"type": "Point", "coordinates": [8.5153, 47.1662]}}, {"type": "Feature", "properties": {"city": "Z\u00fcrich", "mapid": "041-G-29851", "layername": "Association", "num": 1, "type": "association"}, "geometry": {"type": "Point", "coordinates": [8.544, 47.378]}}, {"type": "Feature", "properties": {"city": "Schaffhausen", "mapid": "041-G-29894", "layername": "Association", "num": 1, "type": "association"}, "geometry": {"type": "Point", "coordinates": [8.6397, 47.6967]}}, {"type": "Feature", "properties": {"city": "Frauenfeld", "mapid": "041-G-29921", "layername": "Association", "num": 1, "type": "association"}, "geometry": {"type": "Point", "coordinates": [8.8971, 47.5569]}}, {"type": "Feature", "properties": {"city": "Sankt Gallen", "mapid": "041-G-29977", "layername": "Association", "num": 1, "type": "association"}, "geometry": {"type": "Point", "coordinates": [9.3805, 47.4271]}}, {"type": "Feature", "properties": {"city": "Bregenz", "mapid": "043-G-30044", "layername": "Association", "num": 1, "type": "association"}, "geometry": {"type": "Point", "coordinates": [9.7431, 47.5033]}}, {"type": "Feature", "properties": {"city": "Chur", "mapid": "041-G-30114", "layername": "Association", "num": 1, "type": "association"}, "geometry": {"type": "Point", "coordinates": [9.5321, 46.8519]}}, {"type": "Feature", "properties": {"city": "Perth", "mapid": "044-G-00305", "layername": "Association", "num": 1, "type": "association"}, "geometry": {"type": "Point", "coordinates": [-3.4491, 56.3946]}}, {"type": "Feature", "properties": {"city": "Newcastle upon Tyne", "mapid": "044-G-03097", "layername": "Association", "num": 1, "type": "association"}, "geometry": {"type": "Point", "coordinates": [-1.6231, 54.9708]}}, {"type": "Feature", "properties": {"city": "Stockholm", "mapid": "046-G-34237", "layername": "Association", "num": 1, "type": "association"}, "geometry": {"type": "Point", "coordinates": [18.0687, 59.3171]}}, {"type": "Feature", "properties": {"city": "Dorchester", "mapid": "044-G-03432", "layername": "Association", "num": 1, "type": "association"}, "geometry": {"type": "Point", "coordinates": [-2.4411, 50.7115]}}, {"type": "Feature", "properties": {"city": "Arensburg", "mapid": "372-G-34475", "layername": "Association", "num": 1, "type": "association"}, "geometry": {"type": "Point", "coordinates": [22.4916, 58.2551]}}, {"type": "Feature", "properties": {"city": "Salzburg", "mapid": "043-G-35068", "layername": "Association", "num": 1, "type": "association"}, "geometry": {"type": "Point", "coordinates": [13.0548, 47.8088]}}, {"type": "Feature", "properties": {"city": "Munich", "mapid": "049-G-35406", "layername": "Association", "num": 1, "type": "association"}, "geometry": {"type": "Point", "coordinates": [11.5703, 48.1383]}}, {"type": "Feature", "properties": {"city": "Landshut", "mapid": "049-G-35521", "layername": "Association", "num": 1, "type": "association"}, "geometry": {"type": "Point", "coordinates": [12.1585, 48.5386]}}, {"type": "Feature", "properties": {"city": "Regensburg", "mapid": "049-G-35540", "layername": "Association", "num": 1, "type": "association"}, "geometry": {"type": "Point", "coordinates": [12.0893, 49.0153]}}, {"type": "Feature", "properties": {"city": "Bayreuth", "mapid": "049-G-35751", "layername": "Association", "num": 1, "type": "association"}, "geometry": {"type": "Point", "coordinates": [11.5718, 49.9455]}}, {"type": "Feature", "properties": {"city": "Linz", "mapid": "043-G-36468", "layername": "Association", "num": 1, "type": "association"}, "geometry": {"type": "Point", "coordinates": [14.2893, 48.3025]}}, {"type": "Feature", "properties": {"city": "Klagenfurt", "mapid": "043-G-37711", "layername": "Association", "num": 1, "type": "association"}, "geometry": {"type": "Point", "coordinates": [14.3127, 46.6245]}}, {"type": "Feature", "properties": {"city": "Shrewsbury", "mapid": "044-G-03775", "layername": "Association", "num": 1, "type": "association"}, "geometry": {"type": "Point", "coordinates": [-2.7471, 52.7062]}}, {"type": "Feature", "properties": {"city": "Graz", "mapid": "043-G-37954", "layername": "Association", "num": 1, "type": "association"}, "geometry": {"type": "Point", "coordinates": [15.4226, 47.0629]}}, {"type": "Feature", "properties": {"city": "Jena", "mapid": "049-G-38436", "layername": "Association", "num": 1, "type": "association"}, "geometry": {"type": "Point", "coordinates": [11.5917, 50.9306]}}, {"type": "Feature", "properties": {"city": "Halle", "mapid": "049-G-38608", "layername": "Association", "num": 1, "type": "association"}, "geometry": {"type": "Point", "coordinates": [11.9841, 51.475]}}, {"type": "Feature", "properties": {"city": "Leipzig", "mapid": "049-G-38685", "layername": "Association", "num": 1, "type": "association"}, "geometry": {"type": "Point", "coordinates": [12.3762, 51.3477]}}, {"type": "Feature", "properties": {"city": "Worcester", "mapid": "044-G-03890", "layername": "Association", "num": 1, "type": "association"}, "geometry": {"type": "Point", "coordinates": [-2.2228, 52.1928]}}, {"type": "Feature", "properties": {"city": "Schwerin", "mapid": "049-G-39717", "layername": "Association", "num": 1, "type": "association"}, "geometry": {"type": "Point", "coordinates": [11.4011, 53.6353]}}, {"type": "Feature", "properties": {"city": "Greifswald", "mapid": "049-G-40219", "layername": "Association", "num": 1, "type": "association"}, "geometry": {"type": "Point", "coordinates": [13.3829, 54.0924]}}, {"type": "Feature", "properties": {"city": "Stettin", "mapid": "048-G-40891", "layername": "Association", "num": 1, "type": "association"}, "geometry": {"type": "Point", "coordinates": [14.546, 53.4242]}}, {"type": "Feature", "properties": {"city": "Breslau", "mapid": "048-G-41404", "layername": "Association", "num": 1, "type": "association"}, "geometry": {"type": "Point", "coordinates": [17.0214, 51.1112]}}, {"type": "Feature", "properties": {"city": "Posen", "mapid": "048-G-41610", "layername": "Association", "num": 1, "type": "association"}, "geometry": {"type": "Point", "coordinates": [16.91, 52.4026]}}, {"type": "Feature", "properties": {"city": "Aberdeen", "mapid": "044-G-00435", "layername": "Association", "num": 1, "type": "association"}, "geometry": {"type": "Point", "coordinates": [-2.0963, 57.1478]}}, {"type": "Feature", "properties": {"city": "Birmingham", "mapid": "044-G-04392", "layername": "Association", "num": 1, "type": "association"}, "geometry": {"type": "Point", "coordinates": [-1.8923, 52.4824]}}, {"type": "Feature", "properties": {"city": "Budapest", "mapid": "036-G-44485", "layername": "Association", "num": 1, "type": "association"}, "geometry": {"type": "Point", "coordinates": [19.0516, 47.491]}}, {"type": "Feature", "properties": {"city": "Leicester", "mapid": "044-G-04525", "layername": "Association", "num": 1, "type": "association"}, "geometry": {"type": "Point", "coordinates": [-1.1306, 52.6364]}}, {"type": "Feature", "properties": {"city": "Turz-Sankt Martin", "mapid": "421-G-45608", "layername": "Association", "num": 1, "type": "association"}, "geometry": {"type": "Point", "coordinates": [18.9305, 49.0908]}}, {"type": "Feature", "properties": {"city": "Novi Sad", "mapid": "381-G-46612", "layername": "Association", "num": 1, "type": "association"}, "geometry": {"type": "Point", "coordinates": [19.8392, 45.2646]}}, {"type": "Feature", "properties": {"city": "Temesv\u00e1r", "mapid": "040-G-46974", "layername": "Association", "num": 1, "type": "association"}, "geometry": {"type": "Point", "coordinates": [21.2287, 45.7561]}}, {"type": "Feature", "properties": {"city": "Oxford", "mapid": "044-G-04922", "layername": "Association", "num": 1, "type": "association"}, "geometry": {"type": "Point", "coordinates": [-1.2563, 51.7526]}}, {"type": "Feature", "properties": {"city": "Aylesbury", "mapid": "044-G-04949", "layername": "Association", "num": 1, "type": "association"}, "geometry": {"type": "Point", "coordinates": [-0.8059, 51.8175]}}, {"type": "Feature", "properties": {"city": "Reading", "mapid": "044-G-04963", "layername": "Association", "num": 1, "type": "association"}, "geometry": {"type": "Point", "coordinates": [-0.9751, 51.4505]}}, {"type": "Feature", "properties": {"city": "Odessa", "mapid": "380-G-50333", "layername": "Association", "num": 1, "type": "association"}, "geometry": {"type": "Point", "coordinates": [30.744, 46.4726]}}, {"type": "Feature", "properties": {"city": "Revel", "mapid": "372-G-51146", "layername": "Association", "num": 1, "type": "association"}, "geometry": {"type": "Point", "coordinates": [24.7427, 59.4268]}}, {"type": "Feature", "properties": {"city": "Dorpat", "mapid": "372-G-51512", "layername": "Association", "num": 1, "type": "association"}, "geometry": {"type": "Point", "coordinates": [26.7231, 58.3738]}}, {"type": "Feature", "properties": {"city": null, "mapid": "372-G-52629", "layername": "Association", "num": 1, "type": "association"}, "geometry": {"type": "Point", "coordinates": [28.1974, 59.3757]}}, {"type": "Feature", "properties": {"city": "Truro", "mapid": "044-G-05497", "layername": "Association", "num": 1, "type": "association"}, "geometry": {"type": "Point", "coordinates": [-5.0567, 50.2643]}}, {"type": "Feature", "properties": {"city": "Astrakhan", "mapid": "007-G-55354", "layername": "Association", "num": 1, "type": "association"}, "geometry": {"type": "Point", "coordinates": [48.0159, 46.3738]}}, {"type": "Feature", "properties": {"city": "Stans", "mapid": "041-T-90051", "layername": "Association", "num": 1, "type": "association"}, "geometry": {"type": "Point", "coordinates": [8.36458239013519, 46.9565144296049]}}, {"type": "Feature", "properties": {"city": "Dainville", "mapid": "033-T-90060", "layername": "Association", "num": 1, "type": "association"}, "geometry": {"type": "Point", "coordinates": [2.72222222222222, 50.2830555555556]}}, {"type": "Feature", "properties": {"city": "Devizes", "mapid": "044-T-90061", "layername": "Association", "num": 1, "type": "association"}, "geometry": {"type": "Point", "coordinates": [-1.99472222222222, 51.3519444444444]}}, {"type": "Feature", "properties": {"city": "Lewes", "mapid": "044-T-90062", "layername": "Association", "num": 1, "type": "association"}, "geometry": {"type": "Point", "coordinates": [-0.017777777777781, 50.8755555555555]}}, {"type": "Feature", "properties": {"city": "Glarus", "mapid": "041-T-90064", "layername": "Association", "num": 1, "type": "association"}, "geometry": {"type": "Point", "coordinates": [9.06575313599518, 47.0376234328268]}}, {"type": "Feature", "properties": {"city": "Algiers", "mapid": "213-T-90117", "layername": "Association", "num": 1, "type": "association"}, "geometry": {"type": "Point", "coordinates": [3.05000136363637, 36.783297]}}, {"type": "Feature", "properties": {"city": "Saint-Jean-de-Maurienne", "mapid": "033-T-90119", "layername": "Association", "num": 1, "type": "association"}, "geometry": {"type": "Point", "coordinates": [6.34527777777778, 45.2766666666667]}}, {"type": "Feature", "properties": {"city": "Rennes", "mapid": "033-G-05784", "layername": "Association", "num": 1, "type": "association"}, "geometry": {"type": "Point", "coordinates": [-1.6715, 48.1039]}}, {"type": "Feature", "properties": {"city": "Saint-L\u00f4", "mapid": "033-G-05919", "layername": "Association", "num": 1, "type": "association"}, "geometry": {"type": "Point", "coordinates": [-1.0989, 49.1143]}}, {"type": "Feature", "properties": {"city": "Caen", "mapid": "033-G-05954", "layername": "Association", "num": 1, "type": "association"}, "geometry": {"type": "Point", "coordinates": [-0.3585, 49.1848]}}, {"type": "Feature", "properties": {"city": "Vannes", "mapid": "033-G-06047", "layername": "Association", "num": 1, "type": "association"}, "geometry": {"type": "Point", "coordinates": [-2.7552, 47.6613]}}, {"type": "Feature", "properties": {"city": "Nantes", "mapid": "033-G-06099", "layername": "Association", "num": 1, "type": "association"}, "geometry": {"type": "Point", "coordinates": [-1.5529, 47.2173]}}, {"type": "Feature", "properties": {"city": "La Roche-sur-Yon", "mapid": "033-G-06183", "layername": "Association", "num": 1, "type": "association"}, "geometry": {"type": "Point", "coordinates": [-1.4334, 46.6746]}}, {"type": "Feature", "properties": {"city": "Saintes", "mapid": "033-G-06462", "layername": "Association", "num": 1, "type": "association"}, "geometry": {"type": "Point", "coordinates": [-0.6365, 45.7474]}}, {"type": "Feature", "properties": {"city": "Niort", "mapid": "033-G-06480", "layername": "Association", "num": 1, "type": "association"}, "geometry": {"type": "Point", "coordinates": [-0.4599, 46.3223]}}, {"type": "Feature", "properties": {"city": "Lisbon", "mapid": "351-G-06667", "layername": "Association", "num": 1, "type": "association"}, "geometry": {"type": "Point", "coordinates": [-9.1487, 38.7483]}}, {"type": "Feature", "properties": {"city": "Madrid", "mapid": "034-G-07699", "layername": "Association", "num": 1, "type": "association"}, "geometry": {"type": "Point", "coordinates": [-3.6916, 40.4193]}}, {"type": "Feature", "properties": {"city": "Pau", "mapid": "033-G-08283", "layername": "Association", "num": 1, "type": "association"}, "geometry": {"type": "Point", "coordinates": [-0.3751, 43.3017]}}, {"type": "Feature", "properties": {"city": "Barcelona", "mapid": "034-G-08928", "layername": "Association", "num": 1, "type": "association"}, "geometry": {"type": "Point", "coordinates": [2.175, 41.3962]}}, {"type": "Feature", "properties": {"city": "Tarbes", "mapid": "033-G-08970", "layername": "Association", "num": 1, "type": "association"}, "geometry": {"type": "Point", "coordinates": [0.0732, 43.234]}}, {"type": "Feature", "properties": {"city": "Auch", "mapid": "033-G-09106", "layername": "Association", "num": 1, "type": "association"}, "geometry": {"type": "Point", "coordinates": [0.5882, 43.6445]}}, {"type": "Feature", "properties": {"city": "Montauban", "mapid": "033-G-09205", "layername": "Association", "num": 1, "type": "association"}, "geometry": {"type": "Point", "coordinates": [1.3529, 44.017]}}, {"type": "Feature", "properties": {"city": "Cahors", "mapid": "033-G-09298", "layername": "Association", "num": 1, "type": "association"}, "geometry": {"type": "Point", "coordinates": [1.4418, 44.4462]}}, {"type": "Feature", "properties": {"city": "Rodez", "mapid": "033-G-09395", "layername": "Association", "num": 1, "type": "association"}, "geometry": {"type": "Point", "coordinates": [2.5739, 44.3513]}}, {"type": "Feature", "properties": {"city": "Avignon", "mapid": "033-G-09835", "layername": "Association", "num": 1, "type": "association"}, "geometry": {"type": "Point", "coordinates": [4.818, 43.9517]}}, {"type": "Feature", "properties": {"city": "Marseille", "mapid": "033-G-10005", "layername": "Association", "num": 1, "type": "association"}, "geometry": {"type": "Point", "coordinates": [5.3733, 43.2959]}}, {"type": "Feature", "properties": {"city": "Valence", "mapid": "033-G-09872", "layername": "Association", "num": 1, "type": "association"}, "geometry": {"type": "Point", "coordinates": [4.8864, 44.9308]}}, {"type": "Feature", "properties": {"city": "Kilkenny", "mapid": "353-G-01003", "layername": "Association", "num": 1, "type": "association"}, "geometry": {"type": "Point", "coordinates": [-7.2493, 52.6597]}}, {"type": "Feature", "properties": {"city": "Genoa", "mapid": "039-G-10578", "layername": "Association", "num": 1, "type": "association"}, "geometry": {"type": "Point", "coordinates": [8.948, 44.4069]}}, {"type": "Feature", "properties": {"city": "Palermo", "mapid": "039-G-11107", "layername": "Association", "num": 1, "type": "association"}, "geometry": {"type": "Point", "coordinates": [13.3619, 38.1151]}}, {"type": "Feature", "properties": {"city": "Catania", "mapid": "039-G-11217", "layername": "Association", "num": 1, "type": "association"}, "geometry": {"type": "Point", "coordinates": [15.0877, 37.5021]}}, {"type": "Feature", "properties": {"city": "Rome", "mapid": "039-G-11402", "layername": "Association", "num": 1, "type": "association"}, "geometry": {"type": "Point", "coordinates": [12.4888, 41.9044]}}, {"type": "Feature", "properties": {"city": "Naples", "mapid": "039-G-12196", "layername": "Association", "num": 1, "type": "association"}, "geometry": {"type": "Point", "coordinates": [14.2496, 40.8528]}}, {"type": "Feature", "properties": {"city": "Bari", "mapid": "039-G-12298", "layername": "Association", "num": 1, "type": "association"}, "geometry": {"type": "Point", "coordinates": [16.8513, 41.1218]}}, {"type": "Feature", "properties": {"city": "Inverness", "mapid": "044-G-00127", "layername": "Association", "num": 1, "type": "association"}, "geometry": {"type": "Point", "coordinates": [-4.2272, 57.4769]}}, {"type": "Feature", "properties": {"city": "Belgrade", "mapid": "381-G-13341", "layername": "Association", "num": 1, "type": "association"}, "geometry": {"type": "Point", "coordinates": [20.4672, 44.802]}}, {"type": "Feature", "properties": {"city": "Bangor", "mapid": "044-G-01369", "layername": "Association", "num": 1, "type": "association"}, "geometry": {"type": "Point", "coordinates": [-4.1351, 53.2248]}}, {"type": "Feature", "properties": {"city": "Liverpool", "mapid": "044-G-01612", "layername": "Association", "num": 1, "type": "association"}, "geometry": {"type": "Point", "coordinates": [-2.9821, 53.4105]}}, {"type": "Feature", "properties": {"city": "Chester", "mapid": "044-G-01650", "layername": "Association", "num": 1, "type": "association"}, "geometry": {"type": "Point", "coordinates": [-2.8941, 53.1976]}}, {"type": "Feature", "properties": {"city": "Exeter", "mapid": "044-G-01687", "layername": "Association", "num": 1, "type": "association"}, "geometry": {"type": "Point", "coordinates": [-3.5116, 50.7226]}}, {"type": "Feature", "properties": {"city": "Taunton", "mapid": "044-G-01702", "layername": "Association", "num": 1, "type": "association"}, "geometry": {"type": "Point", "coordinates": [-3.0965, 51.0195]}}, {"type": "Feature", "properties": {"city": "Angoul\u00e8me", "mapid": "033-G-17364", "layername": "Association", "num": 1, "type": "association"}, "geometry": {"type": "Point", "coordinates": [0.168, 45.651]}}, {"type": "Feature", "properties": {"city": "Limoges", "mapid": "033-G-17434", "layername": "Association", "num": 1, "type": "association"}, "geometry": {"type": "Point", "coordinates": [1.2624, 45.8214]}}, {"type": "Feature", "properties": {"city": "P\u00e9rigueux", "mapid": "033-G-17455", "layername": "Association", "num": 1, "type": "association"}, "geometry": {"type": "Point", "coordinates": [0.7191, 45.1831]}}, {"type": "Feature", "properties": {"city": "Saint-Avertin", "mapid": "033-G-17610", "layername": "Association", "num": 1, "type": "association"}, "geometry": {"type": "Point", "coordinates": [0.7315, 47.3677]}}, {"type": "Feature", "properties": {"city": "Blois", "mapid": "033-G-17624", "layername": "Association", "num": 1, "type": "association"}, "geometry": {"type": "Point", "coordinates": [1.3308, 47.5898]}}, {"type": "Feature", "properties": {"city": "Le Mans", "mapid": "033-G-17970", "layername": "Association", "num": 1, "type": "association"}, "geometry": {"type": "Point", "coordinates": [0.187, 48.0108]}}, {"type": "Feature", "properties": {"city": "Beauvais", "mapid": "033-G-18234", "layername": "Association", "num": 1, "type": "association"}, "geometry": {"type": "Point", "coordinates": [2.0866, 49.4356]}}, {"type": "Feature", "properties": {"city": "Amiens", "mapid": "033-G-18378", "layername": "Association", "num": 1, "type": "association"}, "geometry": {"type": "Point", "coordinates": [2.2916, 49.8906]}}, {"type": "Feature", "properties": {"city": "Orl\u00e9ans", "mapid": "033-G-18443", "layername": "Association", "num": 1, "type": "association"}, "geometry": {"type": "Point", "coordinates": [1.9181, 47.9031]}}, {"type": "Feature", "properties": {"city": "Versailles", "mapid": "033-G-18548", "layername": "Association", "num": 1, "type": "association"}, "geometry": {"type": "Point", "coordinates": [2.1286, 48.8153]}}, {"type": "Feature", "properties": {"city": "Melun", "mapid": "033-G-18664", "layername": "Association", "num": 1, "type": "association"}, "geometry": {"type": "Point", "coordinates": [2.659, 48.5384]}}, {"type": "Feature", "properties": {"city": "Troyes", "mapid": "033-G-18869", "layername": "Association", "num": 1, "type": "association"}, "geometry": {"type": "Point", "coordinates": [4.0809, 48.288]}}, {"type": "Feature", "properties": {"city": "Tournai", "mapid": "032-G-19011", "layername": "Association", "num": 1, "type": "association"}, "geometry": {"type": "Point", "coordinates": [3.388, 50.6054]}}, {"type": "Feature", "properties": {"city": "Mons", "mapid": "032-G-19079", "layername": "Association", "num": 1, "type": "association"}, "geometry": {"type": "Point", "coordinates": [3.9514, 50.4542]}}, {"type": "Feature", "properties": {"city": "Laon", "mapid": "033-G-19139", "layername": "Association", "num": 1, "type": "association"}, "geometry": {"type": "Point", "coordinates": [3.6225, 49.5656]}}, {"type": "Feature", "properties": {"city": "Ch\u00e2lons-sur-Marne", "mapid": "033-G-19510", "layername": "Association", "num": 1, "type": "association"}, "geometry": {"type": "Point", "coordinates": [4.3688, 48.9513]}}, {"type": "Feature", "properties": {"city": "Montbrison", "mapid": "033-G-19766", "layername": "Association", "num": 1, "type": "association"}, "geometry": {"type": "Point", "coordinates": [4.069, 45.6066]}}, {"type": "Feature", "properties": {"city": "Moulins", "mapid": "033-G-19795", "layername": "Association", "num": 1, "type": "association"}, "geometry": {"type": "Point", "coordinates": [3.3328, 46.5657]}}]}