{"type": "FeatureCollection", "features": [{"type": "Feature", "geometry": {"type": "Point", "coordinates": [-0.0865, 51.5106]}, "properties": {"type": "association", "num": 33, "layername": "Association", "mapid": "044-G-05204", "city": "London", "instinfo": "0010"}}, {"type": "Feature", "geometry": {"type": "Point", "coordinates": [2.3482, 48.8581]}, "properties": {"type": "association", "num": 28, "layername": "Association", "mapid": "033-G-18561", "city": "Paris", "instinfo": "1011"}}, {"type": "Feature", "geometry": {"type": "Point", "coordinates": [13.4154, 52.5223]}, "properties": {"type": "association", "num": 9, "layername": "Association", "mapid": "049-G-39307", "city": "Berlin", "instinfo": "1010"}}, {"type": "Feature", "geometry": {"type": "Point", "coordinates": [37.6268, 55.7515]}, "properties": {"type": "association", "num": 8, "layername": "Association", "mapid": "007-G-54635", "city": "Moscow", "instinfo": "0110"}}, {"type": "Feature", "geometry": {"type": "Point", "coordinates": [-3.2081, 55.9503]}, "properties": {"type": "association", "num": 8, "layername": "Association", "mapid": "044-G-02262", "city": "Edinburgh", "instinfo": "0010"}}]}