{"type": "FeatureCollection", "features": [{"type": "Feature", "geometry": {"type": "Point", "coordinates": [2.3482, 48.8581]}, "properties": {"type": "museum", "num": 7, "layername": "Museum", "mapid": "033-G-18561", "city": "Paris", "instinfo": "1111"}}, {"type": "Feature", "geometry": {"type": "Point", "coordinates": [21.0155, 52.246]}, "properties": {"type": "museum", "num": 6, "layername": "Museum", "mapid": "048-G-43516", "city": "Warsaw", "instinfo": "1101"}}, {"type": "Feature", "geometry": {"type": "Point", "coordinates": [18.0687, 59.3171]}, "properties": {"type": "museum", "num": 6, "layername": "Museum", "mapid": "046-G-34237", "city": "Stockholm", "instinfo": "0111"}}, {"type": "Feature", "geometry": {"type": "Point", "coordinates": [-0.0865, 51.5106]}, "properties": {"type": "museum", "num": 6, "layername": "Museum", "mapid": "044-G-05204", "city": "London", "instinfo": "0011"}}, {"type": "Feature", "geometry": {"type": "Point", "coordinates": [19.0516, 47.491]}, "properties": {"type": "museum", "num": 6, "layername": "Museum", "mapid": "036-G-44485", "city": "Budapest", "instinfo": "1101"}}, {"type": "Feature", "geometry": {"type": "Point", "coordinates": [37.6268, 55.7515]}, "properties": {"type": "museum", "num": 6, "layername": "Museum", "mapid": "007-G-54635", "city": "Moscow", "instinfo": "0101"}}, {"type": "Feature", "geometry": {"type": "Point", "coordinates": [28.9491, 41.0098]}, "properties": {"type": "museum", "num": 6, "layername": "Museum", "mapid": "090-G-15715", "city": "Istanbul", "instinfo": "0101"}}, {"type": "Feature", "geometry": {"type": "Point", "coordinates": [-3.6916, 40.4193]}, "properties": {"type": "museum", "num": 5, "layername": "Museum", "mapid": "034-G-07699", "city": "Madrid", "instinfo": "0111"}}, {"type": "Feature", "geometry": {"type": "Point", "coordinates": [24.1165, 56.9463]}, "properties": {"type": "museum", "num": 5, "layername": "Museum", "mapid": "371-G-50841", "city": "Riga", "instinfo": "0001"}}, {"type": "Feature", "geometry": {"type": "Point", "coordinates": [-9.1487, 38.7483]}, "properties": {"type": "museum", "num": 5, "layername": "Museum", "mapid": "351-G-06667", "city": "Lisbon", "instinfo": "0101"}}, {"type": "Feature", "geometry": {"type": "Point", "coordinates": [12.5935, 55.6872]}, "properties": {"type": "museum", "num": 5, "layername": "Museum", "mapid": "045-G-39967", "city": "Copenhagen", "instinfo": "0001"}}, {"type": "Feature", "geometry": {"type": "Point", "coordinates": [23.7367, 37.9765]}, "properties": {"type": "museum", "num": 5, "layername": "Museum", "mapid": "030-G-14172", "city": "Athens", "instinfo": "1111"}}, {"type": "Feature", "geometry": {"type": "Point", "coordinates": [12.4888, 41.9044]}, "properties": {"type": "museum", "num": 5, "layername": "Museum", "mapid": "039-G-11402", "city": "Rome", "instinfo": "1111"}}]}