{"type": "FeatureCollection", "crs": {"type": "name", "properties": {"name": "urn:ogc:def:crs:OGC:1.3:CRS84"}}, "features": [{"type": "Feature", "properties": {"city": "Brussels", "mapid": "032-G-21783", "layername": "Museum", "num": 2, "type": "museum"}, "geometry": {"type": "Point", "coordinates": [4.3502, 50.8492]}}, {"type": "Feature", "properties": {"city": "Versailles", "mapid": "033-G-18548", "layername": "Museum", "num": 1, "type": "museum"}, "geometry": {"type": "Point", "coordinates": [2.1286, 48.8153]}}, {"type": "Feature", "properties": {"city": "Paris", "mapid": "033-G-18561", "layername": "Museum", "num": 1, "type": "museum"}, "geometry": {"type": "Point", "coordinates": [2.3482, 48.8581]}}, {"type": "Feature", "properties": {"city": "Edinburgh", "mapid": "044-G-02262", "layername": "Museum", "num": 1, "type": "museum"}, "geometry": {"type": "Point", "coordinates": [-3.2081, 55.9503]}}, {"type": "Feature", "properties": {"city": "Bonn", "mapid": "049-G-23718", "layername": "Museum", "num": 1, "type": "museum"}, "geometry": {"type": "Point", "coordinates": [7.0858, 50.7367]}}, {"type": "Feature", "properties": {"city": "Schleswig", "mapid": "049-G-24371", "layername": "Museum", "num": 1, "type": "museum"}, "geometry": {"type": "Point", "coordinates": [9.5667, 54.5171]}}, {"type": "Feature", "properties": {"city": "Kiel", "mapid": "049-G-24846", "layername": "Museum", "num": 1, "type": "museum"}, "geometry": {"type": "Point", "coordinates": [10.1245, 54.3175]}}, {"type": "Feature", "properties": {"city": "Detmold", "mapid": "049-G-25036", "layername": "Museum", "num": 1, "type": "museum"}, "geometry": {"type": "Point", "coordinates": [8.8772, 51.9416]}}, {"type": "Feature", "properties": {"city": "Kassel", "mapid": "049-G-25206", "layername": "Museum", "num": 1, "type": "museum"}, "geometry": {"type": "Point", "coordinates": [9.509, 51.3186]}}, {"type": "Feature", "properties": {"city": "Fribourg", "mapid": "041-G-26779", "layername": "Museum", "num": 1, "type": "museum"}, "geometry": {"type": "Point", "coordinates": [7.1623, 46.8063]}}, {"type": "Feature", "properties": {"city": "Basel", "mapid": "041-G-26913", "layername": "Museum", "num": 1, "type": "museum"}, "geometry": {"type": "Point", "coordinates": [7.5895, 47.5495]}}, {"type": "Feature", "properties": {"city": "Turin", "mapid": "039-G-27165", "layername": "Museum", "num": 1, "type": "museum"}, "geometry": {"type": "Point", "coordinates": [7.6785, 45.0613]}}, {"type": "Feature", "properties": {"city": "Wiesbaden", "mapid": "049-G-28127", "layername": "Museum", "num": 1, "type": "museum"}, "geometry": {"type": "Point", "coordinates": [8.2423, 50.0771]}}, {"type": "Feature", "properties": {"city": "Heidelberg", "mapid": "049-G-28721", "layername": "Museum", "num": 1, "type": "museum"}, "geometry": {"type": "Point", "coordinates": [8.6844, 49.4057]}}, {"type": "Feature", "properties": {"city": "Darmstadt", "mapid": "049-G-28753", "layername": "Museum", "num": 1, "type": "museum"}, "geometry": {"type": "Point", "coordinates": [8.6524, 49.8729]}}, {"type": "Feature", "properties": {"city": "York", "mapid": "044-G-03213", "layername": "Museum", "num": 1, "type": "museum"}, "geometry": {"type": "Point", "coordinates": [-1.0776, 53.9612]}}, {"type": "Feature", "properties": {"city": "Stockholm", "mapid": "046-G-34237", "layername": "Museum", "num": 1, "type": "museum"}, "geometry": {"type": "Point", "coordinates": [18.0687, 59.3171]}}, {"type": "Feature", "properties": {"city": "Innsbruck", "mapid": "043-G-34737", "layername": "Museum", "num": 1, "type": "museum"}, "geometry": {"type": "Point", "coordinates": [11.3936, 47.2661]}}, {"type": "Feature", "properties": {"city": "Linz", "mapid": "043-G-36468", "layername": "Museum", "num": 1, "type": "museum"}, "geometry": {"type": "Point", "coordinates": [14.2893, 48.3025]}}, {"type": "Feature", "properties": {"city": "Prague", "mapid": "420-G-36826", "layername": "Museum", "num": 1, "type": "museum"}, "geometry": {"type": "Point", "coordinates": [14.4323, 50.0869]}}, {"type": "Feature", "properties": {"city": "Br\u00fcnn", "mapid": "420-G-37303", "layername": "Museum", "num": 1, "type": "museum"}, "geometry": {"type": "Point", "coordinates": [16.6053, 49.1916]}}, {"type": "Feature", "properties": {"city": "Laibach", "mapid": "386-G-37529", "layername": "Museum", "num": 1, "type": "museum"}, "geometry": {"type": "Point", "coordinates": [14.5052, 46.0535]}}, {"type": "Feature", "properties": {"city": "Graz", "mapid": "043-G-37954", "layername": "Museum", "num": 1, "type": "museum"}, "geometry": {"type": "Point", "coordinates": [15.4226, 47.0629]}}, {"type": "Feature", "properties": {"city": "Dresden", "mapid": "049-G-39679", "layername": "Museum", "num": 1, "type": "museum"}, "geometry": {"type": "Point", "coordinates": [13.7325, 51.0515]}}, {"type": "Feature", "properties": {"city": "Copenhagen", "mapid": "045-G-39967", "layername": "Museum", "num": 1, "type": "museum"}, "geometry": {"type": "Point", "coordinates": [12.5935, 55.6872]}}, {"type": "Feature", "properties": {"city": "Stettin", "mapid": "048-G-40891", "layername": "Museum", "num": 1, "type": "museum"}, "geometry": {"type": "Point", "coordinates": [14.546, 53.4242]}}, {"type": "Feature", "properties": {"city": "Buda-Pest", "mapid": "036-G-44485", "layername": "Museum", "num": 1, "type": "museum"}, "geometry": {"type": "Point", "coordinates": [19.0516, 47.491]}}, {"type": "Feature", "properties": {"city": "Hermannstadt", "mapid": "040-G-47969", "layername": "Museum", "num": 1, "type": "museum"}, "geometry": {"type": "Point", "coordinates": [24.141, 45.7911]}}, {"type": "Feature", "properties": {"city": "Mitau", "mapid": "371-G-50721", "layername": "Museum", "num": 1, "type": "museum"}, "geometry": {"type": "Point", "coordinates": [23.7215, 56.6512]}}, {"type": "Feature", "properties": {"city": "London", "mapid": "044-G-05204", "layername": "Museum", "num": 1, "type": "museum"}, "geometry": {"type": "Point", "coordinates": [-0.0865, 51.5106]}}, {"type": "Feature", "properties": {"city": "Saint Petersburg", "mapid": "007-G-52806", "layername": "Museum", "num": 1, "type": "museum"}, "geometry": {"type": "Point", "coordinates": [30.3337, 59.9456]}}, {"type": "Feature", "properties": {"city": "Truro", "mapid": "044-G-05497", "layername": "Museum", "num": 1, "type": "museum"}, "geometry": {"type": "Point", "coordinates": [-5.0567, 50.2643]}}, {"type": "Feature", "properties": {"city": "Orenburg", "mapid": "007-G-55600", "layername": "Museum", "num": 1, "type": "museum"}, "geometry": {"type": "Point", "coordinates": [55.1073, 51.7707]}}, {"type": "Feature", "properties": {"city": "Bijotai", "mapid": "370-T-90063", "layername": "Museum", "num": 1, "type": "museum"}, "geometry": {"type": "Point", "coordinates": [22.5750000000001, 55.4694444444444]}}, {"type": "Feature", "properties": {"city": "Madrid", "mapid": "034-G-07699", "layername": "Museum", "num": 1, "type": "museum"}, "geometry": {"type": "Point", "coordinates": [-3.6916, 40.4193]}}, {"type": "Feature", "properties": {"city": "Belfast", "mapid": "044-G-00876", "layername": "Museum", "num": 1, "type": "museum"}, "geometry": {"type": "Point", "coordinates": [-5.923, 54.5988]}}, {"type": "Feature", "properties": {"city": "Naples", "mapid": "039-G-12196", "layername": "Museum", "num": 1, "type": "museum"}, "geometry": {"type": "Point", "coordinates": [14.2496, 40.8528]}}, {"type": "Feature", "properties": {"city": "Arles", "mapid": "033-G-09827", "layername": "Museum", "num": 1, "type": "museum"}, "geometry": {"type": "Point", "coordinates": [4.6317, 43.6813]}}]}