{"type": "FeatureCollection", "features": [{"type": "Feature", "geometry": {"type": "Point", "coordinates": [-3.6916, 40.4193]}, "properties": {"type": "museum", "num": 2, "layername": "Museum", "mapid": "034-G-07699", "city": "Madrid", "instinfo": "1111"}}, {"type": "Feature", "geometry": {"type": "Point", "coordinates": [4.3502, 50.8492]}, "properties": {"type": "museum", "num": 2, "layername": "Museum", "mapid": "032-G-21783", "city": "Brussels", "instinfo": "0111"}}, {"type": "Feature", "geometry": {"type": "Point", "coordinates": [18.0687, 59.3171]}, "properties": {"type": "museum", "num": 2, "layername": "Museum", "mapid": "046-G-34237", "city": "Stockholm", "instinfo": "1111"}}, {"type": "Feature", "geometry": {"type": "Point", "coordinates": [2.404, 47.0846]}, "properties": {"type": "museum", "num": 1, "layername": "Museum", "mapid": "033-G-17783", "city": "Bourges", "instinfo": "0001"}}, {"type": "Feature", "geometry": {"type": "Point", "coordinates": [2.1286, 48.8153]}, "properties": {"type": "museum", "num": 1, "layername": "Museum", "mapid": "033-G-18548", "city": "Versailles", "instinfo": "0001"}}, {"type": "Feature", "geometry": {"type": "Point", "coordinates": [2.3482, 48.8581]}, "properties": {"type": "museum", "num": 1, "layername": "Museum", "mapid": "033-G-18561", "city": "Paris", "instinfo": "0111"}}, {"type": "Feature", "geometry": {"type": "Point", "coordinates": [4.8675, 50.4693]}, "properties": {"type": "museum", "num": 1, "layername": "Museum", "mapid": "032-G-19274", "city": "Namur", "instinfo": "0101"}}, {"type": "Feature", "geometry": {"type": "Point", "coordinates": [-3.2081, 55.9503]}, "properties": {"type": "museum", "num": 1, "layername": "Museum", "mapid": "044-G-02262", "city": "Edinburgh", "instinfo": "0111"}}, {"type": "Feature", "geometry": {"type": "Point", "coordinates": [7.0858, 50.7367]}, "properties": {"type": "museum", "num": 1, "layername": "Museum", "mapid": "049-G-23718", "city": "Bonn", "instinfo": "0011"}}, {"type": "Feature", "geometry": {"type": "Point", "coordinates": [9.5667, 54.5171]}, "properties": {"type": "museum", "num": 1, "layername": "Museum", "mapid": "049-G-24371", "city": "Schleswig", "instinfo": "0001"}}, {"type": "Feature", "geometry": {"type": "Point", "coordinates": [9.997, 53.5469]}, "properties": {"type": "museum", "num": 1, "layername": "Museum", "mapid": "049-G-24742", "city": "Hamburg", "instinfo": "0011"}}, {"type": "Feature", "geometry": {"type": "Point", "coordinates": [10.1245, 54.3175]}, "properties": {"type": "museum", "num": 1, "layername": "Museum", "mapid": "049-G-24846", "city": "Kiel", "instinfo": "0011"}}, {"type": "Feature", "geometry": {"type": "Point", "coordinates": [8.8772, 51.9416]}, "properties": {"type": "museum", "num": 1, "layername": "Museum", "mapid": "049-G-25036", "city": "Detmold", "instinfo": "0001"}}, {"type": "Feature", "geometry": {"type": "Point", "coordinates": [9.509, 51.3186]}, "properties": {"type": "museum", "num": 1, "layername": "Museum", "mapid": "049-G-25206", "city": "Kassel", "instinfo": "0011"}}, {"type": "Feature", "geometry": {"type": "Point", "coordinates": [9.722, 52.3782]}, "properties": {"type": "museum", "num": 1, "layername": "Museum", "mapid": "049-G-25543", "city": "Hannover", "instinfo": "0011"}}, {"type": "Feature", "geometry": {"type": "Point", "coordinates": [7.1623, 46.8063]}, "properties": {"type": "museum", "num": 1, "layername": "Museum", "mapid": "041-G-26779", "city": "Fribourg", "instinfo": "0111"}}, {"type": "Feature", "geometry": {"type": "Point", "coordinates": [7.5895, 47.5495]}, "properties": {"type": "museum", "num": 1, "layername": "Museum", "mapid": "041-G-26913", "city": "Basel", "instinfo": "0111"}}, {"type": "Feature", "geometry": {"type": "Point", "coordinates": [7.6785, 45.0613]}, "properties": {"type": "museum", "num": 1, "layername": "Museum", "mapid": "039-G-27165", "city": "Turin", "instinfo": "1101"}}, {"type": "Feature", "geometry": {"type": "Point", "coordinates": [6.1811, 48.6926]}, "properties": {"type": "museum", "num": 1, "layername": "Museum", "mapid": "033-G-27377", "city": "Nancy", "instinfo": "0001"}}, {"type": "Feature", "geometry": {"type": "Point", "coordinates": [8.2608, 49.9996]}, "properties": {"type": "museum", "num": 1, "layername": "Museum", "mapid": "049-G-28126", "city": "Mainz", "instinfo": "0011"}}, {"type": "Feature", "geometry": {"type": "Point", "coordinates": [8.2423, 50.0771]}, "properties": {"type": "museum", "num": 1, "layername": "Museum", "mapid": "049-G-28127", "city": "Wiesbaden", "instinfo": "0001"}}, {"type": "Feature", "geometry": {"type": "Point", "coordinates": [8.6844, 49.4057]}, "properties": {"type": "museum", "num": 1, "layername": "Museum", "mapid": "049-G-28721", "city": "Heidelberg", "instinfo": "0001"}}, {"type": "Feature", "geometry": {"type": "Point", "coordinates": [8.6524, 49.8729]}, "properties": {"type": "museum", "num": 1, "layername": "Museum", "mapid": "049-G-28753", "city": "Darmstadt", "instinfo": "0011"}}, {"type": "Feature", "geometry": {"type": "Point", "coordinates": [11.0804, 49.4468]}, "properties": {"type": "museum", "num": 1, "layername": "Museum", "mapid": "049-G-29290", "city": "N\u00fcrnberg", "instinfo": "0001"}}, {"type": "Feature", "geometry": {"type": "Point", "coordinates": [-1.0776, 53.9612]}, "properties": {"type": "museum", "num": 1, "layername": "Museum", "mapid": "044-G-03213", "city": "York", "instinfo": "0001"}}, {"type": "Feature", "geometry": {"type": "Point", "coordinates": [11.3936, 47.2661]}, "properties": {"type": "museum", "num": 1, "layername": "Museum", "mapid": "043-G-34737", "city": "Innsbruck", "instinfo": "0001"}}, {"type": "Feature", "geometry": {"type": "Point", "coordinates": [13.0548, 47.8088]}, "properties": {"type": "museum", "num": 1, "layername": "Museum", "mapid": "043-G-35068", "city": "Salzburg", "instinfo": "0001"}}, {"type": "Feature", "geometry": {"type": "Point", "coordinates": [11.5703, 48.1383]}, "properties": {"type": "museum", "num": 1, "layername": "Museum", "mapid": "049-G-35406", "city": "Munich", "instinfo": "1111"}}, {"type": "Feature", "geometry": {"type": "Point", "coordinates": [14.2893, 48.3025]}, "properties": {"type": "museum", "num": 1, "layername": "Museum", "mapid": "043-G-36468", "city": "Linz", "instinfo": "0011"}}, {"type": "Feature", "geometry": {"type": "Point", "coordinates": [14.4323, 50.0869]}, "properties": {"type": "museum", "num": 1, "layername": "Museum", "mapid": "420-G-36826", "city": "Prague", "instinfo": "1001"}}, {"type": "Feature", "geometry": {"type": "Point", "coordinates": [16.6053, 49.1916]}, "properties": {"type": "museum", "num": 1, "layername": "Museum", "mapid": "420-G-37303", "city": "Br\u00fcnn", "instinfo": "0101"}}, {"type": "Feature", "geometry": {"type": "Point", "coordinates": [14.5052, 46.0535]}, "properties": {"type": "museum", "num": 1, "layername": "Museum", "mapid": "386-G-37529", "city": "Laibach", "instinfo": "0011"}}, {"type": "Feature", "geometry": {"type": "Point", "coordinates": [15.4226, 47.0629]}, "properties": {"type": "museum", "num": 1, "layername": "Museum", "mapid": "043-G-37954", "city": "Graz", "instinfo": "0011"}}, {"type": "Feature", "geometry": {"type": "Point", "coordinates": [15.9724, 45.8135]}, "properties": {"type": "museum", "num": 1, "layername": "Museum", "mapid": "385-G-38250", "city": "Agram", "instinfo": "0011"}}, {"type": "Feature", "geometry": {"type": "Point", "coordinates": [13.7325, 51.0515]}, "properties": {"type": "museum", "num": 1, "layername": "Museum", "mapid": "049-G-39679", "city": "Dresden", "instinfo": "0111"}}, {"type": "Feature", "geometry": {"type": "Point", "coordinates": [12.5935, 55.6872]}, "properties": {"type": "museum", "num": 1, "layername": "Museum", "mapid": "045-G-39967", "city": "Copenhagen", "instinfo": "1011"}}, {"type": "Feature", "geometry": {"type": "Point", "coordinates": [14.546, 53.4242]}, "properties": {"type": "museum", "num": 1, "layername": "Museum", "mapid": "048-G-40891", "city": "Stettin", "instinfo": "0011"}}, {"type": "Feature", "geometry": {"type": "Point", "coordinates": [19.0516, 47.491]}, "properties": {"type": "museum", "num": 1, "layername": "Museum", "mapid": "036-G-44485", "city": "Buda-Pest", "instinfo": "1111"}}, {"type": "Feature", "geometry": {"type": "Point", "coordinates": [19.8392, 45.2646]}, "properties": {"type": "museum", "num": 1, "layername": "Museum", "mapid": "381-G-46612", "city": "Novi Sad", "instinfo": "0001"}}, {"type": "Feature", "geometry": {"type": "Point", "coordinates": [24.141, 45.7911]}, "properties": {"type": "museum", "num": 1, "layername": "Museum", "mapid": "040-G-47969", "city": "Hermannstadt", "instinfo": "0011"}}, {"type": "Feature", "geometry": {"type": "Point", "coordinates": [30.744, 46.4726]}, "properties": {"type": "museum", "num": 1, "layername": "Museum", "mapid": "380-G-50333", "city": "Odessa", "instinfo": "0011"}}, {"type": "Feature", "geometry": {"type": "Point", "coordinates": [32.0308, 46.9652]}, "properties": {"type": "museum", "num": 1, "layername": "Museum", "mapid": "380-G-50649", "city": "Nikolayev", "instinfo": "0001"}}, {"type": "Feature", "geometry": {"type": "Point", "coordinates": [23.7215, 56.6512]}, "properties": {"type": "museum", "num": 1, "layername": "Museum", "mapid": "371-G-50721", "city": "Mitau", "instinfo": "0001"}}, {"type": "Feature", "geometry": {"type": "Point", "coordinates": [24.1165, 56.9463]}, "properties": {"type": "museum", "num": 1, "layername": "Museum", "mapid": "371-G-50841", "city": "Riga", "instinfo": "0011"}}, {"type": "Feature", "geometry": {"type": "Point", "coordinates": [-0.0865, 51.5106]}, "properties": {"type": "museum", "num": 1, "layername": "Museum", "mapid": "044-G-05204", "city": "London", "instinfo": "0111"}}, {"type": "Feature", "geometry": {"type": "Point", "coordinates": [30.3337, 59.9456]}, "properties": {"type": "museum", "num": 1, "layername": "Museum", "mapid": "007-G-52806", "city": "Saint Petersburg", "instinfo": "1011"}}, {"type": "Feature", "geometry": {"type": "Point", "coordinates": [36.4681, 45.3596]}, "properties": {"type": "museum", "num": 1, "layername": "Museum", "mapid": "380-G-54014", "city": "Kerch", "instinfo": "0001"}}, {"type": "Feature", "geometry": {"type": "Point", "coordinates": [35.0141, 48.427]}, "properties": {"type": "museum", "num": 1, "layername": "Museum", "mapid": "380-G-54037", "city": "Ekaterinoslav", "instinfo": "0001"}}, {"type": "Feature", "geometry": {"type": "Point", "coordinates": [-5.0567, 50.2643]}, "properties": {"type": "museum", "num": 1, "layername": "Museum", "mapid": "044-G-05497", "city": "Truro", "instinfo": "0011"}}, {"type": "Feature", "geometry": {"type": "Point", "coordinates": [55.1073, 51.7707]}, "properties": {"type": "museum", "num": 1, "layername": "Museum", "mapid": "007-G-55600", "city": "Orenburg", "instinfo": "0001"}}, {"type": "Feature", "geometry": {"type": "Point", "coordinates": [22.5750000000001, 55.4694444444444]}, "properties": {"type": "museum", "num": 1, "layername": "Museum", "mapid": "370-T-90063", "city": "Bijotai", "instinfo": "0001"}}, {"type": "Feature", "geometry": {"type": "Point", "coordinates": [10.4855555555556, 59.4125]}, "properties": {"type": "museum", "num": 1, "layername": "Museum", "mapid": "047-T-90180", "city": "Horten", "instinfo": "0001"}}, {"type": "Feature", "geometry": {"type": "Point", "coordinates": [-9.1487, 38.7483]}, "properties": {"type": "museum", "num": 1, "layername": "Museum", "mapid": "351-G-06667", "city": "Lisbon", "instinfo": "1101"}}, {"type": "Feature", "geometry": {"type": "Point", "coordinates": [-5.923, 54.5988]}, "properties": {"type": "museum", "num": 1, "layername": "Museum", "mapid": "044-G-00876", "city": "Belfast", "instinfo": "0001"}}, {"type": "Feature", "geometry": {"type": "Point", "coordinates": [14.2496, 40.8528]}, "properties": {"type": "museum", "num": 1, "layername": "Museum", "mapid": "039-G-12196", "city": "Naples", "instinfo": "1101"}}, {"type": "Feature", "geometry": {"type": "Point", "coordinates": [4.6317, 43.6813]}, "properties": {"type": "museum", "num": 1, "layername": "Museum", "mapid": "033-G-09827", "city": "Arles", "instinfo": "0001"}}, {"type": "Feature", "geometry": {"type": "Point", "coordinates": [20.4672, 44.802]}, "properties": {"type": "museum", "num": 1, "layername": "Museum", "mapid": "381-G-13341", "city": "Belgrade", "instinfo": "0001"}}, {"type": "Feature", "geometry": {"type": "Point", "coordinates": [-3.0965, 51.0195]}, "properties": {"type": "museum", "num": 1, "layername": "Museum", "mapid": "044-G-01702", "city": "Taunton", "instinfo": "0011"}}]}